{
  "Afghanistan": [
    {
      "name": "Badakhshan",
      "code": "BDS",
      "type": "province",
      "lat": 36.8040254,
      "lng": 71.367658,
      "population": null
    },
    {
      "name": "Badghis",
      "code": "BDG",
      "type": "province",
      "lat": 35.0,
      "lng": 63.75,
      "population": 559297
    },
    {
      "name": "Baghlan",
      "code": "BGL",
      "type": "province",
      "lat": 36.1789026,
      "lng": 68.7453064,
      "population": 119607
    },
    {
      "name": "Balkh",
      "code": "BAL",
      "type": "province",
      "lat": 36.7550603,
      "lng": 66.8975372,
      "population": null
    },
    {
      "name": "Bamyan",
      "code": "BAM",
      "type": "province",
      "lat": 34.794631,
      "lng": 67.684334,
      "population": 100000
    },
    {
      "name": "Daykundi",
      "code": "DAY",
      "type": "province",
      "lat": 33.725113,
      "lng": 66.2196554,
      "population": 525529
    },
    {
      "name": "Farah",
      "code": "FRA",
      "type": "province",
      "lat": 32.3740907,
      "lng": 62.1146266,
      "population": null
    },
    {
      "name": "Faryab",
      "code": "FYB",
      "type": "province",
      "lat": 35.9261784,
      "lng": 64.6237758,
      "population": 1129528
    },
    {
      "name": "Ghazni",
      "code": "GHA",
      "type": "province",
      "lat": 33.5450587,
      "lng": 68.4173972,
      "population": 190424
    },
    {
      "name": "Ghōr",
      "code": "GHO",
      "type": "province",
      "lat": 34.1605257,
      "lng": 64.9201949,
      "population": 777882
    },
    {
      "name": "Helmand",
      "code": "HEL",
      "type": "province",
      "lat": 31.0,
      "lng": 64.0,
      "population": 1472162
    },
    {
      "name": "Herat",
      "code": "HER",
      "type": "province",
      "lat": 34.3491443,
      "lng": 62.2163252,
      "population": null
    },
    {
      "name": "Jowzjan",
      "code": "JOW",
      "type": "province",
      "lat": 36.9665706,
      "lng": 65.9560232,
      "population": 613481
    },
    {
      "name": "Kabul",
      "code": "KAB",
      "type": "province",
      "lat": 34.5266431,
      "lng": 69.1849082,
      "population": null
    },
    {
      "name": "Kandahar",
      "code": "KAN",
      "type": "province",
      "lat": 31.6205738,
      "lng": 65.7157573,
      "population": 614118
    },
    {
      "name": "Kapisa",
      "code": "KAP",
      "type": "province",
      "lat": 34.905556,
      "lng": 69.741667,
      "population": null
    },
    {
      "name": "Khost",
      "code": "KHO",
      "type": "province",
      "lat": 33.3391402,
      "lng": 69.9206359,
      "population": null
    },
    {
      "name": "Kunar",
      "code": "KNR",
      "type": "province",
      "lat": 34.95,
      "lng": 71.133333,
      "population": null
    },
    {
      "name": "Kunduz Province",
      "code": "KDZ",
      "type": "province",
      "lat": 36.8707187,
      "lng": 68.7563528,
      "population": 1136677
    },
    {
      "name": "Laghman",
      "code": "LAG",
      "type": "province",
      "lat": 34.783333,
      "lng": 70.183333,
      "population": null
    },
    {
      "name": "Logar",
      "code": "LOG",
      "type": "province",
      "lat": 34.0653595,
      "lng": 69.160172,
      "population": null
    },
    {
      "name": "Nangarhar",
      "code": "NAN",
      "type": "province",
      "lat": 34.220389,
      "lng": 70.3800314,
      "population": 1735531
    },
    {
      "name": "Nimruz",
      "code": "NIM",
      "type": "province",
      "lat": 30.7753811,
      "lng": 62.4793088,
      "population": 186963
    },
    {
      "name": "Nuristan",
      "code": "NUR",
      "type": "province",
      "lat": 35.3,
      "lng": 70.833333,
      "population": 166676
    },
    {
      "name": "Paktia",
      "code": "PIA",
      "type": "province",
      "lat": 33.705724,
      "lng": 69.4083555,
      "population": 622831
    },
    {
      "name": "Paktika",
      "code": "PKA",
      "type": "province",
      "lat": 32.3936231,
      "lng": 68.7036514,
      "population": 789079
    },
    {
      "name": "Panjshir",
      "code": "PAN",
      "type": "province",
      "lat": 35.6973556,
      "lng": 70.0999604,
      "population": null
    },
    {
      "name": "Parwan",
      "code": "PAR",
      "type": "province",
      "lat": 34.9797014,
      "lng": 68.9146703,
      "population": 751040
    },
    {
      "name": "Samangan",
      "code": "SAM",
      "type": "province",
      "lat": 36.2674938,
      "lng": 68.0215374,
      "population": null
    },
    {
      "name": "Sar-e Pol",
      "code": "SAR",
      "type": "province",
      "lat": 36.216628,
      "lng": 65.93336,
      "population": null
    },
    {
      "name": "Takhar",
      "code": "TAK",
      "type": "province",
      "lat": 36.5940732,
      "lng": 69.7938996,
      "population": null
    },
    {
      "name": "Urozgan",
      "code": "URU",
      "type": "province",
      "lat": 32.8129681,
      "lng": 66.0183185,
      "population": 436079
    },
    {
      "name": "Wardak",
      "code": "WAR",
      "type": "province",
      "lat": 34.3,
      "lng": 68.5,
      "population": null
    },
    {
      "name": "Zabul",
      "code": "ZAB",
      "type": "province",
      "lat": 32.3068942,
      "lng": 67.129904,
      "population": 391150
    }
  ],
  "Albania": [
    {
      "name": "Berat",
      "code": "01",
      "type": "county",
      "lat": 40.7018636,
      "lng": 19.9580758,
      "population": null
    },
    {
      "name": "Dibër",
      "code": "09",
      "type": "county",
      "lat": 41.622192,
      "lng": 20.180816,
      "population": null
    },
    {
      "name": "Durrës",
      "code": "02",
      "type": "county",
      "lat": 41.4279863,
      "lng": 19.5373372,
      "population": null
    },
    {
      "name": "Elbasan",
      "code": "03",
      "type": "county",
      "lat": 41.0510829,
      "lng": 20.1398526,
      "population": null
    },
    {
      "name": "Fier",
      "code": "04",
      "type": "county",
      "lat": 40.9191392,
      "lng": 19.6639309,
      "population": null
    },
    {
      "name": "Gjirokastër",
      "code": "05",
      "type": "county",
      "lat": 40.0770871,
      "lng": 20.1393359,
      "population": null
    },
    {
      "name": "Korçë",
      "code": "06",
      "type": "county",
      "lat": 40.5858753,
      "lng": 20.7361315,
      "population": null
    },
    {
      "name": "Kukës",
      "code": "07",
      "type": "county",
      "lat": 42.1885664,
      "lng": 20.3769633,
      "population": null
    },
    {
      "name": "Lezhë",
      "code": "08",
      "type": "county",
      "lat": 41.7813759,
      "lng": 19.8067916,
      "population": null
    },
    {
      "name": "Shkodër",
      "code": "10",
      "type": "county",
      "lat": 42.2507677,
      "lng": 19.5959723,
      "population": null
    },
    {
      "name": "Tirana",
      "code": "11",
      "type": "county",
      "lat": 41.2584478,
      "lng": 19.8302656,
      "population": null
    },
    {
      "name": "Vlorë",
      "code": "12",
      "type": "county",
      "lat": 40.150096,
      "lng": 19.8067916,
      "population": null
    }
  ],
  "Algeria": [
    {
      "name": "Adrar",
      "code": "01",
      "type": "province",
      "lat": 26.4888155,
      "lng": -1.3582442,
      "population": null
    },
    {
      "name": "Aïn Defla",
      "code": "44",
      "type": "province",
      "lat": 36.2657178,
      "lng": 1.9701347,
      "population": 65453
    },
    {
      "name": "Aïn Témouchent",
      "code": "46",
      "type": "province",
      "lat": 35.2992698,
      "lng": -1.1392792,
      "population": 75558
    },
    {
      "name": "Algiers",
      "code": "16",
      "type": "province",
      "lat": 36.7000509,
      "lng": 3.0291266,
      "population": null
    },
    {
      "name": "Annaba",
      "code": "23",
      "type": "province",
      "lat": 36.8438448,
      "lng": 7.5981738,
      "population": 464740
    },
    {
      "name": "Batna",
      "code": "05",
      "type": "province",
      "lat": 35.5492346,
      "lng": 6.1160382,
      "population": null
    },
    {
      "name": "Béchar",
      "code": "08",
      "type": "province",
      "lat": 31.6238098,
      "lng": -2.2162443,
      "population": 165627
    },
    {
      "name": "Béjaïa",
      "code": "06",
      "type": "province",
      "lat": 36.7515258,
      "lng": 5.0556837,
      "population": 177988
    },
    {
      "name": "Béni Abbès",
      "code": "53",
      "type": "province",
      "lat": 30.108921,
      "lng": -2.4622548,
      "population": 11416
    },
    {
      "name": "Biskra",
      "code": "07",
      "type": "province",
      "lat": 34.8449437,
      "lng": 5.7248567,
      "population": null
    },
    {
      "name": "Blida",
      "code": "09",
      "type": "province",
      "lat": 36.5012595,
      "lng": 2.9517666,
      "population": null
    },
    {
      "name": "Bordj Baji Mokhtar",
      "code": "52",
      "type": "province",
      "lat": 22.6261461,
      "lng": 0.1275817,
      "population": null
    },
    {
      "name": "Bordj Bou Arréridj",
      "code": "34",
      "type": "province",
      "lat": 36.0739925,
      "lng": 4.7630271,
      "population": 158812
    },
    {
      "name": "Bouïra",
      "code": "10",
      "type": "province",
      "lat": 36.3691846,
      "lng": 3.9006194,
      "population": 88801
    },
    {
      "name": "Boumerdès",
      "code": "35",
      "type": "province",
      "lat": 36.7358032,
      "lng": 3.6163046,
      "population": 41
    },
    {
      "name": "Chlef",
      "code": "02",
      "type": "province",
      "lat": 36.164592,
      "lng": 1.331499,
      "population": 178616
    },
    {
      "name": "Constantine",
      "code": "25",
      "type": "province",
      "lat": 36.3584165,
      "lng": 6.6671674,
      "population": null
    },
    {
      "name": "Djanet",
      "code": "56",
      "type": "province",
      "lat": 24.071521,
      "lng": 9.6155847,
      "population": 14655
    },
    {
      "name": "Djelfa",
      "code": "17",
      "type": "province",
      "lat": 34.6703956,
      "lng": 3.2503761,
      "population": 590000
    },
    {
      "name": "El Bayadh",
      "code": "32",
      "type": "province",
      "lat": 32.570303,
      "lng": 1.1259581,
      "population": 85577
    },
    {
      "name": "El M'ghair",
      "code": "49",
      "type": "province",
      "lat": 33.95807,
      "lng": 5.7011262,
      "population": null
    },
    {
      "name": "El Menia",
      "code": "50",
      "type": "province",
      "lat": 30.7071885,
      "lng": 3.0480625,
      "population": 40195
    },
    {
      "name": "El Oued",
      "code": "39",
      "type": "province",
      "lat": 33.3611531,
      "lng": 6.8606693,
      "population": 134699
    },
    {
      "name": "El Tarf",
      "code": "36",
      "type": "province",
      "lat": 36.7667186,
      "lng": 8.3169418,
      "population": 25594
    },
    {
      "name": "Ghardaïa",
      "code": "47",
      "type": "province",
      "lat": 32.485855,
      "lng": 3.677104,
      "population": 142913
    },
    {
      "name": "Guelma",
      "code": "24",
      "type": "province",
      "lat": 36.4627444,
      "lng": 7.4330833,
      "population": 120004
    },
    {
      "name": "Illizi",
      "code": "33",
      "type": "province",
      "lat": 26.504191,
      "lng": 8.479926,
      "population": 17252
    },
    {
      "name": "In Guezzam",
      "code": "58",
      "type": "province",
      "lat": 20.42753,
      "lng": 4.676631,
      "population": 7045
    },
    {
      "name": "In Salah",
      "code": "57",
      "type": "province",
      "lat": 27.1950331,
      "lng": 2.4826132,
      "population": 32518
    },
    {
      "name": "Jijel",
      "code": "18",
      "type": "province",
      "lat": 36.7292188,
      "lng": 5.9607776,
      "population": 131513
    },
    {
      "name": "Khenchela",
      "code": "40",
      "type": "province",
      "lat": 35.4269404,
      "lng": 7.1460155,
      "population": 114472
    },
    {
      "name": "Laghouat",
      "code": "03",
      "type": "province",
      "lat": 33.8063451,
      "lng": 2.8802635,
      "population": 134372
    },
    {
      "name": "M'Sila",
      "code": "28",
      "type": "province",
      "lat": 35.7087553,
      "lng": 4.5371552,
      "population": 132975
    },
    {
      "name": "Mascara",
      "code": "29",
      "type": "province",
      "lat": 35.394081,
      "lng": 0.1379568,
      "population": null
    },
    {
      "name": "Médéa",
      "code": "26",
      "type": "province",
      "lat": 36.2637078,
      "lng": 2.7587857,
      "population": 145441
    },
    {
      "name": "Mila",
      "code": "43",
      "type": "province",
      "lat": 36.2502135,
      "lng": 6.1652163,
      "population": null
    },
    {
      "name": "Mostaganem",
      "code": "27",
      "type": "province",
      "lat": 36.0026915,
      "lng": 0.3686867,
      "population": 245330
    },
    {
      "name": "Naama",
      "code": "45",
      "type": "province",
      "lat": 33.2667317,
      "lng": -0.3128659,
      "population": null
    },
    {
      "name": "Oran",
      "code": "31",
      "type": "province",
      "lat": 35.6215861,
      "lng": -0.7016143,
      "population": null
    },
    {
      "name": "Ouargla",
      "code": "30",
      "type": "province",
      "lat": 31.9444998,
      "lng": 5.3217813,
      "population": null
    },
    {
      "name": "Ouled Djellal",
      "code": "51",
      "type": "province",
      "lat": 34.4254103,
      "lng": 5.0644342,
      "population": 63237
    },
    {
      "name": "Oum El Bouaghi",
      "code": "04",
      "type": "province",
      "lat": 35.8688789,
      "lng": 7.1108266,
      "population": 80359
    },
    {
      "name": "Relizane",
      "code": "48",
      "type": "province",
      "lat": 35.7381193,
      "lng": 0.5547673,
      "population": 123255
    },
    {
      "name": "Saïda",
      "code": "20",
      "type": "province",
      "lat": 34.8302067,
      "lng": 0.1502692,
      "population": 142497
    },
    {
      "name": "Sétif",
      "code": "19",
      "type": "province",
      "lat": 36.1893494,
      "lng": 5.4046876,
      "population": 288461
    },
    {
      "name": "Sidi Bel Abbès",
      "code": "22",
      "type": "province",
      "lat": 34.682268,
      "lng": -0.4357555,
      "population": 212935
    },
    {
      "name": "Skikda",
      "code": "21",
      "type": "province",
      "lat": 36.7545115,
      "lng": 6.8856255,
      "population": 250000
    },
    {
      "name": "Souk Ahras",
      "code": "41",
      "type": "province",
      "lat": 36.282865,
      "lng": 7.9537896,
      "population": 156745
    },
    {
      "name": "Tamanghasset",
      "code": "11",
      "type": "province",
      "lat": 22.7859372,
      "lng": 5.5291395,
      "population": 92635
    },
    {
      "name": "Tébessa",
      "code": "12",
      "type": "province",
      "lat": 35.124945,
      "lng": 7.9011735,
      "population": 196537
    },
    {
      "name": "Tiaret",
      "code": "14",
      "type": "province",
      "lat": 35.3708689,
      "lng": 1.3217852,
      "population": 178915
    },
    {
      "name": "Timimoun",
      "code": "54",
      "type": "province",
      "lat": 30.0244725,
      "lng": 0.8485979,
      "population": 33060
    },
    {
      "name": "Tindouf",
      "code": "37",
      "type": "province",
      "lat": 27.543907,
      "lng": -6.2400411,
      "population": 150000
    },
    {
      "name": "Tipasa",
      "code": "42",
      "type": "province",
      "lat": 36.527157,
      "lng": 2.1672012,
      "population": null
    },
    {
      "name": "Tissemsilt",
      "code": "38",
      "type": "province",
      "lat": 35.6053781,
      "lng": 1.813098,
      "population": 75197
    },
    {
      "name": "Tizi Ouzou",
      "code": "15",
      "type": "province",
      "lat": 36.6816175,
      "lng": 4.237186,
      "population": 135088
    },
    {
      "name": "Tlemcen",
      "code": "13",
      "type": "province",
      "lat": 34.667468,
      "lng": -1.2978132,
      "population": 140158
    },
    {
      "name": "Touggourt",
      "code": "55",
      "type": "province",
      "lat": 33.1048574,
      "lng": 6.0667276,
      "population": 143270
    }
  ],
  "Andorra": [
    {
      "name": "Andorra la Vella",
      "code": "07",
      "type": "parish",
      "lat": 42.5063174,
      "lng": 1.5218355,
      "population": 22256
    },
    {
      "name": "Canillo",
      "code": "02",
      "type": "parish",
      "lat": 42.5868092,
      "lng": 1.6574431,
      "population": 4826
    },
    {
      "name": "Encamp",
      "code": "03",
      "type": "parish",
      "lat": 42.5359764,
      "lng": 1.5836773,
      "population": 13521
    },
    {
      "name": "Escaldes-Engordany",
      "code": "08",
      "type": "parish",
      "lat": 42.486196,
      "lng": 1.6037711,
      "population": 14395
    },
    {
      "name": "La Massana",
      "code": "04",
      "type": "parish",
      "lat": 42.545625,
      "lng": 1.5147392,
      "population": 10359
    },
    {
      "name": "Ordino",
      "code": "05",
      "type": "parish",
      "lat": 42.5994433,
      "lng": 1.5402327,
      "population": 4858
    },
    {
      "name": "Sant Julià de Lòria",
      "code": "06",
      "type": "parish",
      "lat": 42.4668541,
      "lng": 1.4923277,
      "population": 9915
    }
  ],
  "Angola": [
    {
      "name": "Bengo",
      "code": "BGO",
      "type": "province",
      "lat": -8.3196672,
      "lng": 13.8656195,
      "population": null
    },
    {
      "name": "Benguela",
      "code": "BGU",
      "type": "province",
      "lat": -12.9104657,
      "lng": 14.0356608,
      "population": 561775
    },
    {
      "name": "Bié",
      "code": "BIE",
      "type": "province",
      "lat": -12.2630485,
      "lng": 17.4967812,
      "population": null
    },
    {
      "name": "Cabinda",
      "code": "CAB",
      "type": "province",
      "lat": -5.056395,
      "lng": 12.3211749,
      "population": null
    },
    {
      "name": "Cuando Cubango",
      "code": "CCU",
      "type": "province",
      "lat": -16.0457694,
      "lng": 19.5621532,
      "population": 534002
    },
    {
      "name": "Cuanza",
      "code": "CUS",
      "type": "province",
      "lat": -10.7707527,
      "lng": 15.0975712,
      "population": null
    },
    {
      "name": "Cuanza Norte",
      "code": "CNO",
      "type": "province",
      "lat": -9.0296752,
      "lng": 15.0926324,
      "population": 443386
    },
    {
      "name": "Cunene",
      "code": "CNN",
      "type": "province",
      "lat": -16.5568536,
      "lng": 15.7867319,
      "population": null
    },
    {
      "name": "Huambo",
      "code": "HUA",
      "type": "province",
      "lat": -12.6076318,
      "lng": 15.7411039,
      "population": null
    },
    {
      "name": "Huíla",
      "code": "HUI",
      "type": "province",
      "lat": -14.6957808,
      "lng": 15.0976293,
      "population": null
    },
    {
      "name": "Luanda",
      "code": "LUA",
      "type": "province",
      "lat": -8.8315747,
      "lng": 13.24797,
      "population": null
    },
    {
      "name": "Lunda Norte",
      "code": "LNO",
      "type": "province",
      "lat": -8.5088253,
      "lng": 19.7538618,
      "population": 862566
    },
    {
      "name": "Lunda Sul",
      "code": "LSU",
      "type": "province",
      "lat": -10.1473779,
      "lng": 20.9907756,
      "population": 537587
    },
    {
      "name": "Malanje",
      "code": "MAL",
      "type": "province",
      "lat": -9.535332,
      "lng": 16.9364293,
      "population": 604215
    },
    {
      "name": "Moxico",
      "code": "MOX",
      "type": "province",
      "lat": -12.7287195,
      "lng": 21.2737637,
      "population": null
    },
    {
      "name": "Namibe",
      "code": "NAM",
      "type": "province",
      "lat": -15.2,
      "lng": 12.15,
      "population": 292535
    },
    {
      "name": "Uíge",
      "code": "UIG",
      "type": "province",
      "lat": -6.9516802,
      "lng": 15.4799164,
      "population": 616605
    },
    {
      "name": "Zaire",
      "code": "ZAI",
      "type": "province",
      "lat": -6.6925131,
      "lng": 13.5293029,
      "population": null
    }
  ],
  "Antigua and Barbuda": [
    {
      "name": "Barbuda",
      "code": "10",
      "type": "dependency",
      "lat": 17.6219203,
      "lng": -61.7839588,
      "population": null
    },
    {
      "name": "Redonda",
      "code": "11",
      "type": "dependency",
      "lat": 16.938416,
      "lng": -62.3455148,
      "population": null
    },
    {
      "name": "Saint George",
      "code": "03",
      "type": "parish",
      "lat": 17.1218022,
      "lng": -61.78123,
      "population": null
    },
    {
      "name": "Saint John",
      "code": "04",
      "type": "parish",
      "lat": 17.1151502,
      "lng": -61.8583488,
      "population": null
    },
    {
      "name": "Saint Mary",
      "code": "05",
      "type": "parish",
      "lat": 17.054815,
      "lng": -61.8602368,
      "population": null
    },
    {
      "name": "Saint Paul",
      "code": "06",
      "type": "parish",
      "lat": 17.0325831,
      "lng": -61.7706567,
      "population": null
    },
    {
      "name": "Saint Peter",
      "code": "07",
      "type": "parish",
      "lat": 17.1070239,
      "lng": -61.7502143,
      "population": null
    },
    {
      "name": "Saint Philip",
      "code": "08",
      "type": "parish",
      "lat": 17.066357,
      "lng": -61.7061957,
      "population": null
    }
  ],
  "Argentina": [
    {
      "name": "Autonomous City of Buenos Aires",
      "code": "C",
      "type": "city",
      "lat": -34.6161231,
      "lng": -58.4356212,
      "population": null
    },
    {
      "name": "Buenos Aires",
      "code": "B",
      "type": "province",
      "lat": -37.1498403,
      "lng": -60.1319456,
      "population": null
    },
    {
      "name": "Catamarca",
      "code": "K",
      "type": "province",
      "lat": -28.4715877,
      "lng": -65.7877209,
      "population": null
    },
    {
      "name": "Chaco",
      "code": "H",
      "type": "province",
      "lat": -26.3829647,
      "lng": -60.8816092,
      "population": null
    },
    {
      "name": "Chubut",
      "code": "U",
      "type": "province",
      "lat": -43.7128356,
      "lng": -68.7461817,
      "population": null
    },
    {
      "name": "Córdoba",
      "code": "X",
      "type": "province",
      "lat": -31.4166867,
      "lng": -64.1834193,
      "population": null
    },
    {
      "name": "Corrientes",
      "code": "W",
      "type": "province",
      "lat": -27.4818684,
      "lng": -58.7955872,
      "population": null
    },
    {
      "name": "Entre Ríos",
      "code": "E",
      "type": "province",
      "lat": -31.6252842,
      "lng": -59.3539578,
      "population": null
    },
    {
      "name": "Formosa",
      "code": "P",
      "type": "province",
      "lat": -26.1852983,
      "lng": -58.1744976,
      "population": null
    },
    {
      "name": "Jujuy",
      "code": "Y",
      "type": "province",
      "lat": -23.3161458,
      "lng": -65.7595288,
      "population": null
    },
    {
      "name": "La Pampa",
      "code": "L",
      "type": "province",
      "lat": -37.2314643,
      "lng": -65.3972948,
      "population": 366022
    },
    {
      "name": "La Rioja",
      "code": "F",
      "type": "province",
      "lat": -29.4193793,
      "lng": -66.8559932,
      "population": 324184
    },
    {
      "name": "Mendoza",
      "code": "M",
      "type": "province",
      "lat": -32.8894587,
      "lng": -68.8458386,
      "population": null
    },
    {
      "name": "Misiones",
      "code": "N",
      "type": "province",
      "lat": -26.737224,
      "lng": -54.4315257,
      "population": 1280960
    },
    {
      "name": "Neuquén",
      "code": "Q",
      "type": "province",
      "lat": -38.9519679,
      "lng": -68.0591741,
      "population": null
    },
    {
      "name": "Río Negro",
      "code": "R",
      "type": "province",
      "lat": -39.7296321,
      "lng": -65.3418189,
      "population": null
    },
    {
      "name": "Salta",
      "code": "A",
      "type": "province",
      "lat": -24.7892946,
      "lng": -65.4103194,
      "population": null
    },
    {
      "name": "San Juan",
      "code": "J",
      "type": "province",
      "lat": -31.5370909,
      "lng": -68.5251802,
      "population": null
    },
    {
      "name": "San Luis",
      "code": "D",
      "type": "province",
      "lat": -33.2962042,
      "lng": -66.3294948,
      "population": null
    },
    {
      "name": "Santa Cruz",
      "code": "Z",
      "type": "province",
      "lat": -48.5693327,
      "lng": -70.1606767,
      "population": null
    },
    {
      "name": "Santa Fe",
      "code": "S",
      "type": "province",
      "lat": -31.6186951,
      "lng": -60.7019561,
      "population": null
    },
    {
      "name": "Santiago del Estero",
      "code": "G",
      "type": "province",
      "lat": -27.7833574,
      "lng": -64.264167,
      "population": null
    },
    {
      "name": "Tierra del Fuego",
      "code": "V",
      "type": "province",
      "lat": -54.4071064,
      "lng": -67.8974895,
      "population": null
    },
    {
      "name": "Tucumán",
      "code": "T",
      "type": "province",
      "lat": -26.8303703,
      "lng": -65.2038133,
      "population": 1731820
    }
  ],
  "Armenia": [
    {
      "name": "Aragatsotn",
      "code": "AG",
      "type": "region",
      "lat": 40.2580349,
      "lng": 44.1795089,
      "population": 128941
    },
    {
      "name": "Ararat",
      "code": "AR",
      "type": "region",
      "lat": 39.8553329,
      "lng": 44.6943793,
      "population": null
    },
    {
      "name": "Armavir",
      "code": "AV",
      "type": "region",
      "lat": 40.1554631,
      "lng": 44.0372446,
      "population": null
    },
    {
      "name": "Gegharkunik",
      "code": "GR",
      "type": "region",
      "lat": 40.2483299,
      "lng": 45.1455126,
      "population": null
    },
    {
      "name": "Kotayk",
      "code": "KT",
      "type": "region",
      "lat": 40.4033275,
      "lng": 44.6959923,
      "population": null
    },
    {
      "name": "Lori",
      "code": "LO",
      "type": "region",
      "lat": 41.007271,
      "lng": 44.4900113,
      "population": null
    },
    {
      "name": "Shirak",
      "code": "SH",
      "type": "region",
      "lat": 40.918594,
      "lng": 43.8403536,
      "population": null
    },
    {
      "name": "Syunik",
      "code": "SU",
      "type": "region",
      "lat": 39.3281408,
      "lng": 46.1530296,
      "population": null
    },
    {
      "name": "Tavush",
      "code": "TV",
      "type": "region",
      "lat": 40.9176424,
      "lng": 45.4050681,
      "population": 114940
    },
    {
      "name": "Vayots Dzor",
      "code": "VD",
      "type": "region",
      "lat": 39.8019849,
      "lng": 45.4557591,
      "population": 47369
    },
    {
      "name": "Yerevan",
      "code": "ER",
      "type": "city",
      "lat": 40.1777112,
      "lng": 44.5126233,
      "population": null
    }
  ],
  "Australia": [
    {
      "name": "Australian Capital Territory",
      "code": "ACT",
      "type": "territory",
      "lat": -35.4883502,
      "lng": 149.0026942,
      "population": null
    },
    {
      "name": "New South Wales",
      "code": "NSW",
      "type": "state",
      "lat": -31.8759835,
      "lng": 147.2869493,
      "population": null
    },
    {
      "name": "Northern Territory",
      "code": "NT",
      "type": "territory",
      "lat": -19.8516101,
      "lng": 133.2303375,
      "population": null
    },
    {
      "name": "Queensland",
      "code": "QLD",
      "type": "state",
      "lat": -22.1646782,
      "lng": 144.5844903,
      "population": null
    },
    {
      "name": "South Australia",
      "code": "SA",
      "type": "state",
      "lat": -30.5343665,
      "lng": 135.6301212,
      "population": null
    },
    {
      "name": "Tasmania",
      "code": "TAS",
      "type": "state",
      "lat": -42.035067,
      "lng": 146.6366887,
      "population": null
    },
    {
      "name": "Victoria",
      "code": "VIC",
      "type": "state",
      "lat": -36.5986096,
      "lng": 144.6780052,
      "population": null
    },
    {
      "name": "Western Australia",
      "code": "WA",
      "type": "state",
      "lat": -25.2303005,
      "lng": 121.0187246,
      "population": null
    }
  ],
  "Austria": [
    {
      "name": "Burgenland",
      "code": "1",
      "type": "state",
      "lat": 47.5000001,
      "lng": 16.4166666,
      "population": 301250
    },
    {
      "name": "Carinthia",
      "code": "2",
      "type": "state",
      "lat": 46.7500001,
      "lng": 13.8333333,
      "population": 570095
    },
    {
      "name": "Lower Austria",
      "code": "3",
      "type": "state",
      "lat": 48.2817813,
      "lng": 15.7632457,
      "population": 1698796
    },
    {
      "name": "Salzburg",
      "code": "5",
      "type": "state",
      "lat": 47.7981346,
      "lng": 13.0464806,
      "population": 157245
    },
    {
      "name": "Styria",
      "code": "6",
      "type": "state",
      "lat": 47.2500001,
      "lng": 15.1666665,
      "population": 1265198
    },
    {
      "name": "Tyrol",
      "code": "7",
      "type": "state",
      "lat": 47.223193,
      "lng": 11.5261028,
      "population": null
    },
    {
      "name": "Upper Austria",
      "code": "4",
      "type": "state",
      "lat": 48.25,
      "lng": 14.0,
      "population": 1522825
    },
    {
      "name": "Vienna",
      "code": "9",
      "type": "state",
      "lat": 48.2081743,
      "lng": 16.3738189,
      "population": null
    },
    {
      "name": "Vorarlberg",
      "code": "8",
      "type": "state",
      "lat": 47.25,
      "lng": 9.9166667,
      "population": 401674
    }
  ],
  "Azerbaijan": [
    {
      "name": "Absheron",
      "code": "ABS",
      "type": "district",
      "lat": 40.3361899,
      "lng": 49.2093,
      "population": null
    },
    {
      "name": "Agdam",
      "code": "AGM",
      "type": "district",
      "lat": 39.9928215,
      "lng": 46.9324013,
      "population": 28031
    },
    {
      "name": "Agdash",
      "code": "AGS",
      "type": "district",
      "lat": 40.1672967,
      "lng": 46.0857252,
      "population": null
    },
    {
      "name": "Aghjabadi",
      "code": "AGC",
      "type": "district",
      "lat": 40.050544,
      "lng": 47.4607462,
      "population": 43000
    },
    {
      "name": "Agstafa",
      "code": "AGA",
      "type": "district",
      "lat": 41.1980651,
      "lng": 45.5280953,
      "population": 20200
    },
    {
      "name": "Agsu",
      "code": "AGU",
      "type": "district",
      "lat": 40.5583,
      "lng": 48.352971,
      "population": null
    },
    {
      "name": "Astara",
      "code": "AST",
      "type": "district",
      "lat": 38.5155977,
      "lng": 48.8283223,
      "population": null
    },
    {
      "name": "Babek",
      "code": "BAB",
      "type": "district",
      "lat": 39.1507613,
      "lng": 45.4485368,
      "population": null
    },
    {
      "name": "Baku",
      "code": "BA",
      "type": "municipality",
      "lat": 40.3755885,
      "lng": 49.8328009,
      "population": null
    },
    {
      "name": "Balakan",
      "code": "BAL",
      "type": "district",
      "lat": 41.7319369,
      "lng": 46.4001881,
      "population": null
    },
    {
      "name": "Barda",
      "code": "BAR",
      "type": "district",
      "lat": 40.3812457,
      "lng": 47.1246287,
      "population": null
    },
    {
      "name": "Beylagan",
      "code": "BEY",
      "type": "district",
      "lat": 39.7723073,
      "lng": 47.6154166,
      "population": 99500
    },
    {
      "name": "Bilasuvar",
      "code": "BIL",
      "type": "district",
      "lat": 39.4598833,
      "lng": 48.5509813,
      "population": 20101
    },
    {
      "name": "Dashkasan",
      "code": "DAS",
      "type": "district",
      "lat": 40.475196,
      "lng": 46.0150705,
      "population": null
    },
    {
      "name": "Fizuli",
      "code": "FUZ",
      "type": "district",
      "lat": 39.5835675,
      "lng": 47.3806998,
      "population": null
    },
    {
      "name": "Ganja",
      "code": "GA",
      "type": "municipality",
      "lat": 40.6798083,
      "lng": 46.3597178,
      "population": null
    },
    {
      "name": "Gədəbəy",
      "code": "GAD",
      "type": "district",
      "lat": 40.5699639,
      "lng": 45.8106883,
      "population": 9161
    },
    {
      "name": "Gobustan",
      "code": "QOB",
      "type": "district",
      "lat": 40.5326044,
      "lng": 48.9941676,
      "population": null
    },
    {
      "name": "Goranboy",
      "code": "GOR",
      "type": "district",
      "lat": 40.6035723,
      "lng": 46.7073906,
      "population": null
    },
    {
      "name": "Goychay",
      "code": "GOY",
      "type": "district",
      "lat": 40.6494415,
      "lng": 47.7412208,
      "population": null
    },
    {
      "name": "Goygol",
      "code": "GYG",
      "type": "district",
      "lat": 40.588004,
      "lng": 46.321095,
      "population": null
    },
    {
      "name": "Hajigabul",
      "code": "HAC",
      "type": "district",
      "lat": 40.0286557,
      "lng": 48.9350797,
      "population": 77
    },
    {
      "name": "Imishli",
      "code": "IMI",
      "type": "district",
      "lat": 39.8694686,
      "lng": 48.0665218,
      "population": 158682
    },
    {
      "name": "Ismailli",
      "code": "ISM",
      "type": "district",
      "lat": 40.788056,
      "lng": 48.1485653,
      "population": 28776
    },
    {
      "name": "Jabrayil",
      "code": "CAB",
      "type": "district",
      "lat": 39.3188061,
      "lng": 46.9785547,
      "population": 2293
    },
    {
      "name": "Jalilabad",
      "code": "CAL",
      "type": "district",
      "lat": 39.2051632,
      "lng": 48.5100604,
      "population": 56400
    },
    {
      "name": "Julfa",
      "code": "CUL",
      "type": "district",
      "lat": 39.141142,
      "lng": 45.6949712,
      "population": null
    },
    {
      "name": "Kalbajar",
      "code": "KAL",
      "type": "district",
      "lat": 40.1024329,
      "lng": 46.0364872,
      "population": 600
    },
    {
      "name": "Kangarli",
      "code": "KAN",
      "type": "district",
      "lat": 39.3632216,
      "lng": 45.2098308,
      "population": null
    },
    {
      "name": "Khachmaz",
      "code": "XAC",
      "type": "district",
      "lat": 41.4591168,
      "lng": 48.8020626,
      "population": null
    },
    {
      "name": "Khankendi",
      "code": "XA",
      "type": "municipality",
      "lat": 39.8266,
      "lng": 46.7556,
      "population": 75000
    },
    {
      "name": "Khizi",
      "code": "XIZ",
      "type": "district",
      "lat": 40.9109489,
      "lng": 49.0729264,
      "population": 1600
    },
    {
      "name": "Khojali",
      "code": "XCI",
      "type": "district",
      "lat": 38.7584727,
      "lng": 48.8564302,
      "population": null
    },
    {
      "name": "Kurdamir",
      "code": "KUR",
      "type": "district",
      "lat": 40.3455247,
      "lng": 48.1488951,
      "population": 18100
    },
    {
      "name": "Lachin",
      "code": "LAC",
      "type": "district",
      "lat": 39.6383414,
      "lng": 46.5460853,
      "population": 2190
    },
    {
      "name": "Lankaran",
      "code": "LAN",
      "type": "municipality",
      "lat": 38.7618973,
      "lng": 48.8437784,
      "population": 89300
    },
    {
      "name": "Lankaran",
      "code": "LA",
      "type": "district",
      "lat": 38.7618973,
      "lng": 48.8437784,
      "population": 89300
    },
    {
      "name": "Lerik",
      "code": "LER",
      "type": "district",
      "lat": 38.7736192,
      "lng": 48.4151483,
      "population": null
    },
    {
      "name": "Martuni",
      "code": "XVD",
      "type": "district",
      "lat": 39.8184389,
      "lng": 46.7480867,
      "population": null
    },
    {
      "name": "Masally",
      "code": "MAS",
      "type": "district",
      "lat": 39.0322111,
      "lng": 48.6721093,
      "population": 26345
    },
    {
      "name": "Mingachevir",
      "code": "MI",
      "type": "municipality",
      "lat": 40.7702563,
      "lng": 47.0496015,
      "population": 106048
    },
    {
      "name": "Naftalan",
      "code": "NA",
      "type": "municipality",
      "lat": 40.5061,
      "lng": 46.8244,
      "population": null
    },
    {
      "name": "Nakhchivan",
      "code": "NV",
      "type": "municipality",
      "lat": 39.2089,
      "lng": 45.4122,
      "population": null
    },
    {
      "name": "Nakhchivan",
      "code": "NX",
      "type": "autonomous republic",
      "lat": 39.217497,
      "lng": 45.4069671,
      "population": null
    },
    {
      "name": "Neftchala",
      "code": "NEF",
      "type": "district",
      "lat": 39.3790532,
      "lng": 49.248607,
      "population": null
    },
    {
      "name": "Oghuz",
      "code": "OGU",
      "type": "district",
      "lat": 41.0727924,
      "lng": 47.4650672,
      "population": null
    },
    {
      "name": "Ordubad",
      "code": "ORD",
      "type": "district",
      "lat": 38.9021622,
      "lng": 46.0237625,
      "population": 10372
    },
    {
      "name": "Qabala",
      "code": "QAB",
      "type": "district",
      "lat": 40.9436064,
      "lng": 47.8213377,
      "population": 12808
    },
    {
      "name": "Qakh",
      "code": "QAX",
      "type": "district",
      "lat": 41.4185515,
      "lng": 46.9192097,
      "population": 57200
    },
    {
      "name": "Qazakh",
      "code": "QAZ",
      "type": "district",
      "lat": 41.1707366,
      "lng": 45.2528833,
      "population": 35102
    },
    {
      "name": "Quba",
      "code": "QBA",
      "type": "district",
      "lat": 41.1880893,
      "lng": 48.3721452,
      "population": 47200
    },
    {
      "name": "Qubadli",
      "code": "QBI",
      "type": "district",
      "lat": 39.3335958,
      "lng": 46.63354,
      "population": 600
    },
    {
      "name": "Qusar",
      "code": "QUS",
      "type": "district",
      "lat": 41.4266886,
      "lng": 48.4345577,
      "population": 99000
    },
    {
      "name": "Saatly",
      "code": "SAT",
      "type": "district",
      "lat": 39.9376009,
      "lng": 48.3689097,
      "population": 109100
    },
    {
      "name": "Sabirabad",
      "code": "SAB",
      "type": "district",
      "lat": 40.008006,
      "lng": 48.475032,
      "population": null
    },
    {
      "name": "Sadarak",
      "code": "SAD",
      "type": "district",
      "lat": 39.6727407,
      "lng": 44.9138739,
      "population": null
    },
    {
      "name": "Salyan",
      "code": "SAL",
      "type": "district",
      "lat": 39.6524101,
      "lng": 49.1084381,
      "population": null
    },
    {
      "name": "Samukh",
      "code": "SMX",
      "type": "district",
      "lat": 40.7604631,
      "lng": 46.4063181,
      "population": 6013
    },
    {
      "name": "Shabran",
      "code": "SBN",
      "type": "district",
      "lat": 41.1776161,
      "lng": 48.8767058,
      "population": 59900
    },
    {
      "name": "Shahbuz",
      "code": "SAH",
      "type": "district",
      "lat": 39.4385817,
      "lng": 45.6071333,
      "population": 3127
    },
    {
      "name": "Shaki",
      "code": "SA",
      "type": "municipality",
      "lat": 41.2033609,
      "lng": 47.1802623,
      "population": null
    },
    {
      "name": "Shaki",
      "code": "SAK",
      "type": "district",
      "lat": 41.2033609,
      "lng": 47.1802623,
      "population": null
    },
    {
      "name": "Shamakhi",
      "code": "SMI",
      "type": "district",
      "lat": 40.6318731,
      "lng": 48.6363801,
      "population": 31704
    },
    {
      "name": "Shamkir",
      "code": "SKR",
      "type": "district",
      "lat": 40.8357964,
      "lng": 46.0246224,
      "population": null
    },
    {
      "name": "Sharur",
      "code": "SAR",
      "type": "district",
      "lat": 39.5536332,
      "lng": 44.984568,
      "population": 7400
    },
    {
      "name": "Shirvan",
      "code": "SR",
      "type": "municipality",
      "lat": 39.9296573,
      "lng": 48.9342657,
      "population": null
    },
    {
      "name": "Shusha",
      "code": "SUS",
      "type": "district",
      "lat": 39.7632567,
      "lng": 46.7511501,
      "population": 4064
    },
    {
      "name": "Siazan",
      "code": "SIY",
      "type": "district",
      "lat": 41.0783833,
      "lng": 49.1118477,
      "population": 26284
    },
    {
      "name": "Sumqayit",
      "code": "SM",
      "type": "municipality",
      "lat": 40.5961585,
      "lng": 49.6696668,
      "population": 427000
    },
    {
      "name": "Tartar",
      "code": "TAR",
      "type": "district",
      "lat": 40.3443875,
      "lng": 46.9376519,
      "population": null
    },
    {
      "name": "Tovuz",
      "code": "TOV",
      "type": "district",
      "lat": 40.9954523,
      "lng": 45.6165907,
      "population": null
    },
    {
      "name": "Ujar",
      "code": "UCA",
      "type": "district",
      "lat": 40.5185386,
      "lng": 47.6487809,
      "population": 89500
    },
    {
      "name": "Yardymli",
      "code": "YAR",
      "type": "district",
      "lat": 38.9028993,
      "lng": 48.2132983,
      "population": 68000
    },
    {
      "name": "Yevlakh",
      "code": "YEV",
      "type": "district",
      "lat": 40.6115136,
      "lng": 47.1466686,
      "population": 71962
    },
    {
      "name": "Yevlakh",
      "code": "YE",
      "type": "municipality",
      "lat": 40.6115136,
      "lng": 47.1466686,
      "population": 71962
    },
    {
      "name": "Zangilan",
      "code": "ZAN",
      "type": "district",
      "lat": 39.0856899,
      "lng": 46.6524728,
      "population": 500
    },
    {
      "name": "Zaqatala",
      "code": "ZAQ",
      "type": "district",
      "lat": 41.6180321,
      "lng": 46.7595126,
      "population": null
    },
    {
      "name": "Zardab",
      "code": "ZAR",
      "type": "district",
      "lat": 40.2148114,
      "lng": 47.714944,
      "population": 59300
    }
  ],
  "Bahamas": [
    {
      "name": "Acklins",
      "code": "AK",
      "type": "district",
      "lat": 22.4145,
      "lng": -74.0606831,
      "population": null
    },
    {
      "name": "Berry Islands",
      "code": "BY",
      "type": "district",
      "lat": 25.5905,
      "lng": -77.7261006,
      "population": 1016
    },
    {
      "name": "Bimini",
      "code": "BI",
      "type": "district",
      "lat": 25.7032538,
      "lng": -79.2733449,
      "population": 2417
    },
    {
      "name": "Black Point",
      "code": "BP",
      "type": "district",
      "lat": 24.0962598,
      "lng": -76.4022591,
      "population": null
    },
    {
      "name": "Cat Island",
      "code": "CI",
      "type": "district",
      "lat": 24.3385,
      "lng": -75.6149932,
      "population": null
    },
    {
      "name": "Central Abaco",
      "code": "CO",
      "type": "district",
      "lat": 26.5255105,
      "lng": -77.2838118,
      "population": null
    },
    {
      "name": "Central Andros",
      "code": "CS",
      "type": "district",
      "lat": 24.4343749,
      "lng": -77.7934077,
      "population": null
    },
    {
      "name": "Central Eleuthera",
      "code": "CE",
      "type": "district",
      "lat": 25.239,
      "lng": -76.3291621,
      "population": null
    },
    {
      "name": "Crooked Island",
      "code": "CK",
      "type": "district",
      "lat": 22.7486959,
      "lng": -74.2386163,
      "population": null
    },
    {
      "name": "East Grand Bahama",
      "code": "EG",
      "type": "district",
      "lat": 26.6772229,
      "lng": -78.0134521,
      "population": null
    },
    {
      "name": "Exuma",
      "code": "EX",
      "type": "district",
      "lat": 23.9685,
      "lng": -76.1799049,
      "population": 7293
    },
    {
      "name": "Freeport",
      "code": "FP",
      "type": "district",
      "lat": 26.535681,
      "lng": -78.6953623,
      "population": null
    },
    {
      "name": "Grand Cay",
      "code": "GC",
      "type": "district",
      "lat": 27.2287191,
      "lng": -78.3324366,
      "population": 383
    },
    {
      "name": "Harbour Island",
      "code": "HI",
      "type": "district",
      "lat": 25.50011,
      "lng": -76.6340511,
      "population": null
    },
    {
      "name": "Hope Town",
      "code": "HT",
      "type": "district",
      "lat": 26.5407116,
      "lng": -76.9594379,
      "population": 458
    },
    {
      "name": "Inagua",
      "code": "IN",
      "type": "district",
      "lat": 21.2325,
      "lng": -73.3096213,
      "population": 856
    },
    {
      "name": "Long Island",
      "code": "LI",
      "type": "district",
      "lat": 23.303,
      "lng": -75.1058782,
      "population": null
    },
    {
      "name": "Mangrove Cay",
      "code": "MC",
      "type": "district",
      "lat": 24.2188205,
      "lng": -77.7176145,
      "population": null
    },
    {
      "name": "Mayaguana",
      "code": "MG",
      "type": "district",
      "lat": 22.3698426,
      "lng": -72.8876816,
      "population": 208
    },
    {
      "name": "Moore's Island",
      "code": "MI",
      "type": "district",
      "lat": 25.866667,
      "lng": -77.966667,
      "population": null
    },
    {
      "name": "New Providence",
      "code": "NP",
      "type": "island",
      "lat": 25.1943588,
      "lng": -77.2953297,
      "population": null
    },
    {
      "name": "North Abaco",
      "code": "NO",
      "type": "district",
      "lat": 26.9383943,
      "lng": -77.6838221,
      "population": 9578
    },
    {
      "name": "North Andros",
      "code": "NS",
      "type": "district",
      "lat": 24.8875,
      "lng": -78.0811619,
      "population": 4069
    },
    {
      "name": "North Eleuthera",
      "code": "NE",
      "type": "district",
      "lat": 25.3776694,
      "lng": -76.7842655,
      "population": null
    },
    {
      "name": "Ragged Island",
      "code": "RI",
      "type": "district",
      "lat": 22.4765594,
      "lng": -75.8020934,
      "population": null
    },
    {
      "name": "Rum Cay",
      "code": "RC",
      "type": "district",
      "lat": 23.8263065,
      "lng": -74.9326829,
      "population": 90
    },
    {
      "name": "San Salvador Island",
      "code": "SS",
      "type": "district",
      "lat": 24.0343816,
      "lng": -74.4851373,
      "population": 824
    },
    {
      "name": "South Abaco",
      "code": "SO",
      "type": "district",
      "lat": 26.004,
      "lng": -77.3567072,
      "population": null
    },
    {
      "name": "South Andros",
      "code": "SA",
      "type": "district",
      "lat": 23.8985,
      "lng": -77.4565404,
      "population": 3711
    },
    {
      "name": "South Eleuthera",
      "code": "SE",
      "type": "district",
      "lat": 24.7310794,
      "lng": -76.2926928,
      "population": null
    },
    {
      "name": "Spanish Wells",
      "code": "SW",
      "type": "district",
      "lat": 25.5402336,
      "lng": -76.9606233,
      "population": 1608
    },
    {
      "name": "West Grand Bahama",
      "code": "WG",
      "type": "district",
      "lat": 26.744,
      "lng": -78.8788685,
      "population": null
    }
  ],
  "Bahrain": [
    {
      "name": "Capital",
      "code": "13",
      "type": "governorate",
      "lat": 26.4243233,
      "lng": 50.4747251,
      "population": null
    },
    {
      "name": "Muharraq",
      "code": "15",
      "type": "governorate",
      "lat": 26.2465946,
      "lng": 50.6164127,
      "population": 176583
    },
    {
      "name": "Northern",
      "code": "17",
      "type": "governorate",
      "lat": 26.2778477,
      "lng": 50.4181123,
      "population": null
    },
    {
      "name": "Southern",
      "code": "14",
      "type": "governorate",
      "lat": 25.8400069,
      "lng": 50.5902693,
      "population": null
    }
  ],
  "Bangladesh": [
    {
      "name": "Bagerhat",
      "code": "05",
      "type": "district",
      "lat": 22.65833,
      "lng": 89.78333,
      "population": 49073
    },
    {
      "name": "Bandarban",
      "code": "01",
      "type": "district",
      "lat": 22.19534,
      "lng": 92.21946,
      "population": 54450
    },
    {
      "name": "Barguna",
      "code": "02",
      "type": "district",
      "lat": 22.1533,
      "lng": 90.11997,
      "population": 33235
    },
    {
      "name": "Barisal ",
      "code": "A",
      "type": "division",
      "lat": 22.4934035,
      "lng": 90.3548015,
      "population": null
    },
    {
      "name": "Barishal",
      "code": "06",
      "type": "district",
      "lat": 22.701,
      "lng": 90.3536,
      "population": null
    },
    {
      "name": "Bhola",
      "code": "07",
      "type": "district",
      "lat": 22.6854,
      "lng": 90.6482,
      "population": null
    },
    {
      "name": "Bogura",
      "code": "03",
      "type": "district",
      "lat": 24.84656,
      "lng": 89.37764,
      "population": null
    },
    {
      "name": "Brahmanbaria",
      "code": "04",
      "type": "district",
      "lat": 23.9609,
      "lng": 91.1115,
      "population": 264326
    },
    {
      "name": "Chandpur",
      "code": "09",
      "type": "district",
      "lat": 23.2513,
      "lng": 90.8518,
      "population": null
    },
    {
      "name": "Chapai Nawabganj",
      "code": "45",
      "type": "district",
      "lat": 24.59548,
      "lng": 88.29125,
      "population": 201000
    },
    {
      "name": "Chattogram",
      "code": "10",
      "type": "district",
      "lat": 22.3569,
      "lng": 91.7832,
      "population": null
    },
    {
      "name": "Chittagong ",
      "code": "B",
      "type": "division",
      "lat": 22.6800466,
      "lng": 91.8839938,
      "population": null
    },
    {
      "name": "Chuadanga",
      "code": "12",
      "type": "district",
      "lat": 23.6402,
      "lng": 88.8412,
      "population": null
    },
    {
      "name": "Cox's Bazar",
      "code": "11",
      "type": "district",
      "lat": 21.4394,
      "lng": 92.0099,
      "population": 196374
    },
    {
      "name": "Cumilla",
      "code": "08",
      "type": "district",
      "lat": 23.4605,
      "lng": 91.1809,
      "population": null
    },
    {
      "name": "Dhaka",
      "code": "13",
      "type": "district",
      "lat": 23.8105,
      "lng": 90.4072,
      "population": null
    },
    {
      "name": "Dhaka ",
      "code": "C",
      "type": "division",
      "lat": 23.9456166,
      "lng": 90.2526382,
      "population": null
    },
    {
      "name": "Dinajpur",
      "code": "14",
      "type": "district",
      "lat": 25.6277,
      "lng": 88.6363,
      "population": 212275
    },
    {
      "name": "Faridpur",
      "code": "15",
      "type": "district",
      "lat": 23.6072,
      "lng": 89.8406,
      "population": null
    },
    {
      "name": "Feni",
      "code": "16",
      "type": "district",
      "lat": 23.0133,
      "lng": 91.4039,
      "population": null
    },
    {
      "name": "Gaibandha",
      "code": "19",
      "type": "district",
      "lat": 25.3288,
      "lng": 89.543,
      "population": 79237
    },
    {
      "name": "Gazipur",
      "code": "18",
      "type": "district",
      "lat": 24.0958,
      "lng": 90.4125,
      "population": null
    },
    {
      "name": "Gopalganj",
      "code": "17",
      "type": "district",
      "lat": 23.0055,
      "lng": 89.8266,
      "population": null
    },
    {
      "name": "Habiganj",
      "code": "20",
      "type": "district",
      "lat": 24.3744,
      "lng": 91.4153,
      "population": 85628
    },
    {
      "name": "Jamalpur",
      "code": "21",
      "type": "district",
      "lat": 25.0833,
      "lng": 89.9333,
      "population": null
    },
    {
      "name": "Jashore",
      "code": "22",
      "type": "district",
      "lat": 23.1665,
      "lng": 89.2121,
      "population": 209330
    },
    {
      "name": "Jhalakathi",
      "code": "25",
      "type": "district",
      "lat": 22.6402,
      "lng": 90.1987,
      "population": null
    },
    {
      "name": "Jhenaidah",
      "code": "23",
      "type": "district",
      "lat": 23.5449,
      "lng": 89.1726,
      "population": 140256
    },
    {
      "name": "Joypurhat",
      "code": "24",
      "type": "district",
      "lat": 25.0936,
      "lng": 89.0945,
      "population": 84910
    },
    {
      "name": "Khagrachhari",
      "code": "29",
      "type": "district",
      "lat": 23.1191,
      "lng": 91.9766,
      "population": 58875
    },
    {
      "name": "Khulna",
      "code": "27",
      "type": "district",
      "lat": 22.8157,
      "lng": 89.5681,
      "population": null
    },
    {
      "name": "Khulna ",
      "code": "D",
      "type": "division",
      "lat": 22.9372087,
      "lng": 89.2852741,
      "population": null
    },
    {
      "name": "Kishoreganj",
      "code": "26",
      "type": "district",
      "lat": 24.444,
      "lng": 90.7767,
      "population": 103798
    },
    {
      "name": "Kurigram",
      "code": "28",
      "type": "district",
      "lat": 25.8055,
      "lng": 89.6277,
      "population": null
    },
    {
      "name": "Kushtia",
      "code": "30",
      "type": "district",
      "lat": 23.8907,
      "lng": 89.1189,
      "population": null
    },
    {
      "name": "Lakshmipur",
      "code": "31",
      "type": "district",
      "lat": 22.9449,
      "lng": 90.8282,
      "population": 83112
    },
    {
      "name": "Lalmonirhat",
      "code": "32",
      "type": "district",
      "lat": 25.9178,
      "lng": 89.4452,
      "population": 60322
    },
    {
      "name": "Madaripur",
      "code": "36",
      "type": "district",
      "lat": 23.17,
      "lng": 90.1877,
      "population": 1293027
    },
    {
      "name": "Magura",
      "code": "37",
      "type": "district",
      "lat": 23.4871,
      "lng": 89.4198,
      "population": null
    },
    {
      "name": "Manikganj",
      "code": "33",
      "type": "district",
      "lat": 23.8614,
      "lng": 90.0003,
      "population": 71698
    },
    {
      "name": "Meherpur",
      "code": "39",
      "type": "district",
      "lat": 23.7621,
      "lng": 88.6318,
      "population": 47133
    },
    {
      "name": "Moulvibazar",
      "code": "38",
      "type": "district",
      "lat": 24.3094,
      "lng": 91.7315,
      "population": 68303
    },
    {
      "name": "Munshiganj",
      "code": "35",
      "type": "district",
      "lat": 23.5518,
      "lng": 90.4122,
      "population": 70674
    },
    {
      "name": "Mymensingh",
      "code": "34",
      "type": "district",
      "lat": 24.7536,
      "lng": 90.4072,
      "population": null
    },
    {
      "name": "Mymensingh ",
      "code": "H",
      "type": "division",
      "lat": 24.7482129,
      "lng": 90.4099158,
      "population": null
    },
    {
      "name": "Naogaon",
      "code": "48",
      "type": "district",
      "lat": 24.8042,
      "lng": 88.9254,
      "population": 178635
    },
    {
      "name": "Narail",
      "code": "43",
      "type": "district",
      "lat": 23.1163,
      "lng": 89.4998,
      "population": 42299
    },
    {
      "name": "Narayanganj",
      "code": "40",
      "type": "district",
      "lat": 23.6338,
      "lng": 90.5,
      "population": null
    },
    {
      "name": "Narsingdi",
      "code": "42",
      "type": "district",
      "lat": 23.9232,
      "lng": 90.7168,
      "population": 180699
    },
    {
      "name": "Natore",
      "code": "44",
      "type": "district",
      "lat": 24.4205,
      "lng": 89.0006,
      "population": 147000
    },
    {
      "name": "Netrakona",
      "code": "41",
      "type": "district",
      "lat": 24.8809,
      "lng": 90.7277,
      "population": 2324853
    },
    {
      "name": "Nilphamari",
      "code": "46",
      "type": "district",
      "lat": 25.9318,
      "lng": 88.856,
      "population": null
    },
    {
      "name": "Noakhali",
      "code": "47",
      "type": "district",
      "lat": 22.8691,
      "lng": 91.0979,
      "population": 3625442
    },
    {
      "name": "Pabna",
      "code": "49",
      "type": "district",
      "lat": 24.0064,
      "lng": 89.2336,
      "population": 175982
    },
    {
      "name": "Panchagarh",
      "code": "52",
      "type": "district",
      "lat": 26.3388,
      "lng": 88.5539,
      "population": null
    },
    {
      "name": "Patuakhali",
      "code": "51",
      "type": "district",
      "lat": 22.3591,
      "lng": 90.3289,
      "population": 65000
    },
    {
      "name": "Pirojpur",
      "code": "50",
      "type": "district",
      "lat": 22.5791,
      "lng": 89.9759,
      "population": 60056
    },
    {
      "name": "Rajbari",
      "code": "53",
      "type": "district",
      "lat": 23.7574,
      "lng": 89.6447,
      "population": null
    },
    {
      "name": "Rajshahi",
      "code": "54",
      "type": "district",
      "lat": 24.3744,
      "lng": 88.6044,
      "population": null
    },
    {
      "name": "Rajshahi ",
      "code": "E",
      "type": "division",
      "lat": 24.6285432,
      "lng": 89.0376862,
      "population": null
    },
    {
      "name": "Rangamati",
      "code": "56",
      "type": "district",
      "lat": 22.6532,
      "lng": 92.1753,
      "population": 648219
    },
    {
      "name": "Rangpur ",
      "code": "F",
      "type": "division",
      "lat": 25.6376135,
      "lng": 89.0826381,
      "population": null
    },
    {
      "name": "Rangpur",
      "code": "55",
      "type": "district",
      "lat": 25.7466,
      "lng": 89.2508,
      "population": null
    },
    {
      "name": "Satkhira",
      "code": "58",
      "type": "district",
      "lat": 22.7159,
      "lng": 89.0706,
      "population": 138411
    },
    {
      "name": "Shariatpur",
      "code": "62",
      "type": "district",
      "lat": 23.2423,
      "lng": 90.4348,
      "population": 49535
    },
    {
      "name": "Sherpur",
      "code": "57",
      "type": "district",
      "lat": 25.0197,
      "lng": 90.0151,
      "population": null
    },
    {
      "name": "Sirajganj",
      "code": "59",
      "type": "district",
      "lat": 24.4533,
      "lng": 89.7006,
      "population": 450000
    },
    {
      "name": "Sunamganj",
      "code": "61",
      "type": "district",
      "lat": 25.0658,
      "lng": 91.395,
      "population": 74570
    },
    {
      "name": "Sylhet ",
      "code": "G",
      "type": "division",
      "lat": 24.7358854,
      "lng": 91.6852476,
      "population": null
    },
    {
      "name": "Sylhet",
      "code": "60",
      "type": "district",
      "lat": 24.8994,
      "lng": 91.8698,
      "population": null
    },
    {
      "name": "Tangail",
      "code": "63",
      "type": "district",
      "lat": 24.2498,
      "lng": 89.9168,
      "population": 212887
    },
    {
      "name": "Thakurgaon",
      "code": "64",
      "type": "district",
      "lat": 26.0322,
      "lng": 88.461,
      "population": null
    }
  ],
  "Barbados": [
    {
      "name": "Christ Church",
      "code": "01",
      "type": "parish",
      "lat": 13.082618,
      "lng": -59.5374451,
      "population": null
    },
    {
      "name": "Saint Andrew",
      "code": "02",
      "type": "parish",
      "lat": 13.2432904,
      "lng": -59.57317,
      "population": null
    },
    {
      "name": "Saint George",
      "code": "03",
      "type": "parish",
      "lat": 13.1384022,
      "lng": -59.5443721,
      "population": null
    },
    {
      "name": "Saint James",
      "code": "04",
      "type": "parish",
      "lat": 13.1863793,
      "lng": -59.625192,
      "population": null
    },
    {
      "name": "Saint John",
      "code": "05",
      "type": "parish",
      "lat": 13.1899463,
      "lng": -59.5592151,
      "population": null
    },
    {
      "name": "Saint Joseph",
      "code": "06",
      "type": "parish",
      "lat": 13.1899463,
      "lng": -59.5592151,
      "population": null
    },
    {
      "name": "Saint Lucy",
      "code": "07",
      "type": "parish",
      "lat": 13.3024068,
      "lng": -59.6129445,
      "population": null
    },
    {
      "name": "Saint Michael",
      "code": "08",
      "type": "parish",
      "lat": 13.1182985,
      "lng": -59.6015783,
      "population": null
    },
    {
      "name": "Saint Peter",
      "code": "09",
      "type": "parish",
      "lat": 13.2619779,
      "lng": -59.6207444,
      "population": null
    },
    {
      "name": "Saint Philip",
      "code": "10",
      "type": "parish",
      "lat": 13.129539,
      "lng": -59.4674102,
      "population": null
    },
    {
      "name": "Saint Thomas",
      "code": "11",
      "type": "parish",
      "lat": 13.177202,
      "lng": -59.5853833,
      "population": null
    }
  ],
  "Belarus": [
    {
      "name": "Brest",
      "code": "BR",
      "type": "oblast",
      "lat": 52.093751,
      "lng": 23.6851851,
      "population": null
    },
    {
      "name": "Gomel",
      "code": "HO",
      "type": "oblast",
      "lat": 52.4238936,
      "lng": 31.0131698,
      "population": 501193
    },
    {
      "name": "Grodno",
      "code": "HR",
      "type": "oblast",
      "lat": 53.6834599,
      "lng": 23.8342648,
      "population": 363718
    },
    {
      "name": "Minsk",
      "code": "MI",
      "type": "oblast",
      "lat": 53.9024716,
      "lng": 27.5618225,
      "population": 1996730
    },
    {
      "name": "Minsk",
      "code": "HM",
      "type": "city",
      "lat": 53.9024716,
      "lng": 27.5618225,
      "population": 1996730
    },
    {
      "name": "Mogilev",
      "code": "MA",
      "type": "oblast",
      "lat": 53.9090245,
      "lng": 30.3429838,
      "population": 352896
    },
    {
      "name": "Vitebsk",
      "code": "VI",
      "type": "oblast",
      "lat": 55.2381972,
      "lng": 28.7742203,
      "population": null
    }
  ],
  "Belgium": [
    {
      "name": "Antwerp",
      "code": "VAN",
      "type": "province",
      "lat": 51.2194475,
      "lng": 4.4024643,
      "population": null
    },
    {
      "name": "Brussels-Capital ",
      "code": "BRU",
      "type": "region",
      "lat": 50.8387951,
      "lng": 4.3753041,
      "population": null
    },
    {
      "name": "East Flanders",
      "code": "VOV",
      "type": "province",
      "lat": 51.0375423,
      "lng": 3.811783,
      "population": 1572002
    },
    {
      "name": "Flanders",
      "code": "VLG",
      "type": "region",
      "lat": 51.0962462,
      "lng": 4.1786291,
      "population": 6821770
    },
    {
      "name": "Flemish Brabant",
      "code": "VBR",
      "type": "province",
      "lat": 50.8686516,
      "lng": 4.7886238,
      "population": 1196773
    },
    {
      "name": "Hainaut",
      "code": "WHT",
      "type": "province",
      "lat": 50.36192,
      "lng": 4.125217,
      "population": null
    },
    {
      "name": "Liège",
      "code": "WLG",
      "type": "province",
      "lat": 50.6450944,
      "lng": 5.5736112,
      "population": 195278
    },
    {
      "name": "Limburg",
      "code": "VLI",
      "type": "province",
      "lat": 50.9977937,
      "lng": 5.4453575,
      "population": null
    },
    {
      "name": "Luxembourg",
      "code": "WLX",
      "type": "province",
      "lat": 49.9638005,
      "lng": 5.4398019,
      "population": null
    },
    {
      "name": "Namur",
      "code": "WNA",
      "type": "province",
      "lat": 50.4673883,
      "lng": 4.8719854,
      "population": 114007
    },
    {
      "name": "Wallonia",
      "code": "WAL",
      "type": "region",
      "lat": 50.1545523,
      "lng": 5.3992119,
      "population": 3692283
    },
    {
      "name": "Walloon Brabant",
      "code": "WBR",
      "type": "province",
      "lat": 50.6663106,
      "lng": 4.5500074,
      "population": 414130
    },
    {
      "name": "West Flanders",
      "code": "VWV",
      "type": "province",
      "lat": 51.0404747,
      "lng": 2.9994213,
      "population": 1226375
    }
  ],
  "Belize": [
    {
      "name": "Belize",
      "code": "BZ",
      "type": "district",
      "lat": 17.5002768,
      "lng": -88.1988737,
      "population": null
    },
    {
      "name": "Cayo",
      "code": "CY",
      "type": "district",
      "lat": 17.1582776,
      "lng": -89.0681672,
      "population": null
    },
    {
      "name": "Corozal",
      "code": "CZL",
      "type": "district",
      "lat": 18.2276324,
      "lng": -88.2921257,
      "population": null
    },
    {
      "name": "Orange Walk",
      "code": "OW",
      "type": "district",
      "lat": 17.7831833,
      "lng": -88.8620283,
      "population": null
    },
    {
      "name": "Stann Creek",
      "code": "SC",
      "type": "district",
      "lat": 16.9666599,
      "lng": -88.2247368,
      "population": null
    },
    {
      "name": "Toledo",
      "code": "TOL",
      "type": "district",
      "lat": 16.1345572,
      "lng": -88.8219041,
      "population": null
    }
  ],
  "Benin": [
    {
      "name": "Alibori",
      "code": "AL",
      "type": "department",
      "lat": 11.4649482,
      "lng": 2.7938798,
      "population": 868046
    },
    {
      "name": "Atakora",
      "code": "AK",
      "type": "department",
      "lat": 10.7160515,
      "lng": 1.5331527,
      "population": null
    },
    {
      "name": "Atlantique",
      "code": "AQ",
      "type": "department",
      "lat": 6.540829,
      "lng": 2.223095,
      "population": null
    },
    {
      "name": "Borgou",
      "code": "BO",
      "type": "department",
      "lat": 9.7097453,
      "lng": 2.7422648,
      "population": 1202095
    },
    {
      "name": "Collines",
      "code": "CO",
      "type": "department",
      "lat": 8.1085479,
      "lng": 2.1853101,
      "population": null
    },
    {
      "name": "Donga",
      "code": "DO",
      "type": "department",
      "lat": 9.2679806,
      "lng": 1.7170684,
      "population": null
    },
    {
      "name": "Kouffo",
      "code": "KO",
      "type": "department",
      "lat": 7.1312662,
      "lng": 1.7567394,
      "population": 741895
    },
    {
      "name": "Littoral",
      "code": "LI",
      "type": "department",
      "lat": 6.3663195,
      "lng": 2.4170608,
      "population": null
    },
    {
      "name": "Mono",
      "code": "MO",
      "type": "department",
      "lat": 6.457624,
      "lng": 1.867408,
      "population": null
    },
    {
      "name": "Ouémé",
      "code": "OU",
      "type": "department",
      "lat": 6.6013531,
      "lng": 2.550566,
      "population": null
    },
    {
      "name": "Plateau",
      "code": "PL",
      "type": "department",
      "lat": 7.1002602,
      "lng": 2.6409144,
      "population": null
    },
    {
      "name": "Zou",
      "code": "ZO",
      "type": "department",
      "lat": 7.2834335,
      "lng": 2.1227604,
      "population": null
    }
  ],
  "Bhutan": [
    {
      "name": "Bumthang ",
      "code": "33",
      "type": "district",
      "lat": 27.7079132,
      "lng": 90.7697435,
      "population": null
    },
    {
      "name": "Chukha ",
      "code": "12",
      "type": "district",
      "lat": 27.0575803,
      "lng": 89.5638178,
      "population": null
    },
    {
      "name": "Dagana ",
      "code": "22",
      "type": "district",
      "lat": 27.0746653,
      "lng": 89.8786685,
      "population": null
    },
    {
      "name": "Gasa ",
      "code": "GA",
      "type": "district",
      "lat": 27.9190875,
      "lng": 89.7875318,
      "population": null
    },
    {
      "name": "Haa ",
      "code": "13",
      "type": "district",
      "lat": 27.3596658,
      "lng": 89.2357556,
      "population": null
    },
    {
      "name": "Lhuntse ",
      "code": "44",
      "type": "district",
      "lat": 27.7287448,
      "lng": 91.1363624,
      "population": null
    },
    {
      "name": "Mongar ",
      "code": "42",
      "type": "district",
      "lat": 27.2763005,
      "lng": 91.237536,
      "population": null
    },
    {
      "name": "Paro ",
      "code": "11",
      "type": "district",
      "lat": 27.4285949,
      "lng": 89.4166516,
      "population": null
    },
    {
      "name": "Pemagatshel ",
      "code": "43",
      "type": "district",
      "lat": 27.0030415,
      "lng": 91.3677054,
      "population": null
    },
    {
      "name": "Punakha ",
      "code": "23",
      "type": "district",
      "lat": 27.5842857,
      "lng": 89.8593094,
      "population": 6262
    },
    {
      "name": "Samdrup Jongkhar ",
      "code": "45",
      "type": "district",
      "lat": 26.8035682,
      "lng": 91.5039207,
      "population": 9325
    },
    {
      "name": "Samtse ",
      "code": "14",
      "type": "district",
      "lat": 27.0352532,
      "lng": 89.0147344,
      "population": 5396
    },
    {
      "name": "Sarpang ",
      "code": "31",
      "type": "district",
      "lat": 26.9863897,
      "lng": 90.3800673,
      "population": 10416
    },
    {
      "name": "Thimphu ",
      "code": "15",
      "type": "district",
      "lat": 27.4712216,
      "lng": 89.6339041,
      "population": 114551
    },
    {
      "name": "Trashi Yangtse\t",
      "code": "TY",
      "type": "district",
      "lat": 27.717585,
      "lng": 91.1981102,
      "population": null
    },
    {
      "name": "Trashigang ",
      "code": "41",
      "type": "district",
      "lat": 27.2843778,
      "lng": 91.5742509,
      "population": 3037
    },
    {
      "name": "Trongsa ",
      "code": "32",
      "type": "district",
      "lat": 27.5002269,
      "lng": 90.5080634,
      "population": null
    },
    {
      "name": "Tsirang ",
      "code": "21",
      "type": "district",
      "lat": 27.0072232,
      "lng": 90.1326289,
      "population": 22376
    },
    {
      "name": "Wangdue Phodrang ",
      "code": "24",
      "type": "district",
      "lat": 27.544634,
      "lng": 89.955581,
      "population": 8954
    },
    {
      "name": "Zhemgang ",
      "code": "34",
      "type": "district",
      "lat": 27.0821148,
      "lng": 90.8408984,
      "population": 2332
    }
  ],
  "Bolivia": [
    {
      "name": "Beni",
      "code": "B",
      "type": "department",
      "lat": -14.0,
      "lng": -65.0,
      "population": null
    },
    {
      "name": "Chuquisaca",
      "code": "H",
      "type": "department",
      "lat": -20.0,
      "lng": -64.416667,
      "population": null
    },
    {
      "name": "Cochabamba",
      "code": "C",
      "type": "department",
      "lat": -17.3330142,
      "lng": -65.5010931,
      "population": null
    },
    {
      "name": "La Paz",
      "code": "L",
      "type": "department",
      "lat": -15.0,
      "lng": -68.333333,
      "population": null
    },
    {
      "name": "Oruro",
      "code": "O",
      "type": "department",
      "lat": -18.666667,
      "lng": -67.666667,
      "population": null
    },
    {
      "name": "Pando",
      "code": "N",
      "type": "department",
      "lat": -11.183333,
      "lng": -67.183333,
      "population": null
    },
    {
      "name": "Potosí",
      "code": "P",
      "type": "department",
      "lat": -20.666667,
      "lng": -66.666667,
      "population": null
    },
    {
      "name": "Santa Cruz",
      "code": "S",
      "type": "department",
      "lat": -17.333333,
      "lng": -61.5,
      "population": null
    },
    {
      "name": "Tarija",
      "code": "T",
      "type": "department",
      "lat": -21.583333,
      "lng": -63.833333,
      "population": null
    }
  ],
  "Bosnia and Herzegovina": [
    {
      "name": "Brčko",
      "code": "BRC",
      "type": "district",
      "lat": 44.8771222,
      "lng": 18.8095022,
      "population": 39893
    },
    {
      "name": "Federation of Bosnia and Herzegovina",
      "code": "BIH",
      "type": "entity",
      "lat": 43.916741,
      "lng": 17.5482072,
      "population": null
    },
    {
      "name": "Republika Srpska",
      "code": "SRP",
      "type": "entity",
      "lat": 44.6696196,
      "lng": 17.3659025,
      "population": null
    }
  ],
  "Botswana": [
    {
      "name": "Central",
      "code": "CE",
      "type": "district",
      "lat": -21.4790187,
      "lng": 26.2154174,
      "population": null
    },
    {
      "name": "Chobe",
      "code": "CH",
      "type": "district",
      "lat": -18.5,
      "lng": 25.0,
      "population": null
    },
    {
      "name": "Francistown",
      "code": "FR",
      "type": "city",
      "lat": -21.17361111,
      "lng": 27.5125,
      "population": null
    },
    {
      "name": "Gaborone",
      "code": "GA",
      "type": "city",
      "lat": -24.65805556,
      "lng": 25.91222222,
      "population": null
    },
    {
      "name": "Ghanzi",
      "code": "GH",
      "type": "district",
      "lat": -21.6968123,
      "lng": 21.6457062,
      "population": 21420
    },
    {
      "name": "Jwaneng",
      "code": "JW",
      "type": "town",
      "lat": -24.60194444,
      "lng": 24.72833333,
      "population": null
    },
    {
      "name": "Kgalagadi",
      "code": "KG",
      "type": "district",
      "lat": -24.8490576,
      "lng": 21.7883349,
      "population": null
    },
    {
      "name": "Kgatleng",
      "code": "KL",
      "type": "district",
      "lat": -24.134085,
      "lng": 26.4177246,
      "population": 121882
    },
    {
      "name": "Kweneng",
      "code": "KW",
      "type": "district",
      "lat": -23.9028101,
      "lng": 24.9214122,
      "population": 415
    },
    {
      "name": "Lobatse",
      "code": "LO",
      "type": "town",
      "lat": -25.21666667,
      "lng": 25.66666667,
      "population": null
    },
    {
      "name": "North-East",
      "code": "NE",
      "type": "district",
      "lat": -21.0244816,
      "lng": 27.5147504,
      "population": null
    },
    {
      "name": "North-West",
      "code": "NW",
      "type": "district",
      "lat": -19.3893529,
      "lng": 23.267951,
      "population": null
    },
    {
      "name": "Selibe Phikwe",
      "code": "SP",
      "type": "town",
      "lat": -21.97583333,
      "lng": 27.84,
      "population": null
    },
    {
      "name": "South-East",
      "code": "SE",
      "type": "district",
      "lat": -24.6563846,
      "lng": 26.0575429,
      "population": null
    },
    {
      "name": "Southern",
      "code": "SO",
      "type": "district",
      "lat": -24.7998688,
      "lng": 24.5800692,
      "population": null
    },
    {
      "name": "Sowa Town",
      "code": "ST",
      "type": "town",
      "lat": -20.56361111,
      "lng": 26.22444444,
      "population": null
    }
  ],
  "Brazil": [
    {
      "name": "Acre",
      "code": "AC",
      "type": "state",
      "lat": -9.0478679,
      "lng": -70.5264976,
      "population": null
    },
    {
      "name": "Alagoas",
      "code": "AL",
      "type": "state",
      "lat": -9.6611661,
      "lng": -36.6502426,
      "population": 3127683
    },
    {
      "name": "Amapá",
      "code": "AP",
      "type": "state",
      "lat": 1.3545442,
      "lng": -51.9161977,
      "population": 733759
    },
    {
      "name": "Amazonas",
      "code": "AM",
      "type": "state",
      "lat": -3.2001766,
      "lng": -59.4989288,
      "population": null
    },
    {
      "name": "Bahia",
      "code": "BA",
      "type": "state",
      "lat": -12.285251,
      "lng": -41.9294776,
      "population": 14870907
    },
    {
      "name": "Ceará",
      "code": "CE",
      "type": "state",
      "lat": -5.3264703,
      "lng": -39.7156073,
      "population": 8794957
    },
    {
      "name": "Distrito Federal",
      "code": "DF",
      "type": "federal district",
      "lat": -15.7754462,
      "lng": -47.7970891,
      "population": null
    },
    {
      "name": "Espírito Santo",
      "code": "ES",
      "type": "state",
      "lat": -19.5687682,
      "lng": -40.1721991,
      "population": 3833712
    },
    {
      "name": "Goiás",
      "code": "GO",
      "type": "state",
      "lat": -15.9323662,
      "lng": -50.1392928,
      "population": 7350480
    },
    {
      "name": "Maranhão",
      "code": "MA",
      "type": "state",
      "lat": -5.2085503,
      "lng": -45.3930262,
      "population": 6776699
    },
    {
      "name": "Mato Grosso",
      "code": "MT",
      "type": "state",
      "lat": -12.2115009,
      "lng": -55.5716547,
      "population": 3893659
    },
    {
      "name": "Mato Grosso do Sul",
      "code": "MS",
      "type": "state",
      "lat": -19.5852564,
      "lng": -54.4794731,
      "population": 2924631
    },
    {
      "name": "Minas Gerais",
      "code": "MG",
      "type": "state",
      "lat": -18.5264844,
      "lng": -44.1588654,
      "population": 21322691
    },
    {
      "name": "Pará",
      "code": "PA",
      "type": "state",
      "lat": -4.7493933,
      "lng": -52.8973006,
      "population": 8120131
    },
    {
      "name": "Paraíba",
      "code": "PB",
      "type": "state",
      "lat": -7.1219366,
      "lng": -36.7246845,
      "population": 3974687
    },
    {
      "name": "Paraná",
      "code": "PR",
      "type": "state",
      "lat": -24.4842187,
      "lng": -51.8148872,
      "population": null
    },
    {
      "name": "Pernambuco",
      "code": "PE",
      "type": "state",
      "lat": -8.4116316,
      "lng": -37.5919699,
      "population": 9539029
    },
    {
      "name": "Piauí",
      "code": "PI",
      "type": "state",
      "lat": -7.6992782,
      "lng": -42.5043787,
      "population": 3271199
    },
    {
      "name": "Rio de Janeiro",
      "code": "RJ",
      "type": "state",
      "lat": -22.9110137,
      "lng": -43.2093727,
      "population": null
    },
    {
      "name": "Rio Grande do Norte",
      "code": "RN",
      "type": "state",
      "lat": -5.6781175,
      "lng": -36.4781776,
      "population": 3302729
    },
    {
      "name": "Rio Grande do Sul",
      "code": "RS",
      "type": "state",
      "lat": -29.8425284,
      "lng": -53.7680577,
      "population": 10882965
    },
    {
      "name": "Rondônia",
      "code": "RO",
      "type": "state",
      "lat": -10.943145,
      "lng": -62.8277863,
      "population": 1581196
    },
    {
      "name": "Roraima",
      "code": "RR",
      "type": "state",
      "lat": 2.135138,
      "lng": -61.3631922,
      "population": 636707
    },
    {
      "name": "Santa Catarina",
      "code": "SC",
      "type": "state",
      "lat": -27.0628367,
      "lng": -51.114965,
      "population": null
    },
    {
      "name": "São Paulo",
      "code": "SP",
      "type": "state",
      "lat": -23.5505199,
      "lng": -46.6333094,
      "population": null
    },
    {
      "name": "Sergipe",
      "code": "SE",
      "type": "state",
      "lat": -10.6743911,
      "lng": -37.3773519,
      "population": 2210004
    },
    {
      "name": "Tocantins",
      "code": "TO",
      "type": "state",
      "lat": -10.8855129,
      "lng": -48.3716912,
      "population": 1511460
    }
  ],
  "Brunei": [
    {
      "name": "Belait",
      "code": "BE",
      "type": "district",
      "lat": 4.4349938,
      "lng": 114.4946524,
      "population": null
    },
    {
      "name": "Brunei-Muara",
      "code": "BM",
      "type": "district",
      "lat": 4.9752098,
      "lng": 114.9367663,
      "population": 318530
    },
    {
      "name": "Temburong",
      "code": "TE",
      "type": "district",
      "lat": 4.629184,
      "lng": 115.1634408,
      "population": 9444
    },
    {
      "name": "Tutong",
      "code": "TU",
      "type": "district",
      "lat": 4.682681,
      "lng": 114.6562706,
      "population": null
    }
  ],
  "Bulgaria": [
    {
      "name": "Blagoevgrad",
      "code": "01",
      "type": "district",
      "lat": 42.0111077,
      "lng": 23.0906457,
      "population": null
    },
    {
      "name": "Burgas",
      "code": "02",
      "type": "district",
      "lat": 42.4936616,
      "lng": 27.4721276,
      "population": 211000
    },
    {
      "name": "Dobrich",
      "code": "08",
      "type": "district",
      "lat": 43.572786,
      "lng": 27.8272802,
      "population": 69434
    },
    {
      "name": "Gabrovo",
      "code": "07",
      "type": "district",
      "lat": 42.86847,
      "lng": 25.316889,
      "population": null
    },
    {
      "name": "Haskovo",
      "code": "26",
      "type": "district",
      "lat": 41.9344178,
      "lng": 25.5554672,
      "population": null
    },
    {
      "name": "Kardzhali",
      "code": "09",
      "type": "district",
      "lat": 41.643746,
      "lng": 25.3722156,
      "population": 44071
    },
    {
      "name": "Kyustendil",
      "code": "10",
      "type": "district",
      "lat": 42.2868799,
      "lng": 22.6939635,
      "population": null
    },
    {
      "name": "Lovech",
      "code": "11",
      "type": "district",
      "lat": 43.1367798,
      "lng": 24.7139335,
      "population": null
    },
    {
      "name": "Montana",
      "code": "12",
      "type": "district",
      "lat": 43.4085148,
      "lng": 23.2257589,
      "population": 1137233
    },
    {
      "name": "Pazardzhik",
      "code": "13",
      "type": "district",
      "lat": 42.1927567,
      "lng": 24.3336226,
      "population": null
    },
    {
      "name": "Pernik",
      "code": "14",
      "type": "district",
      "lat": 42.605199,
      "lng": 23.0377916,
      "population": null
    },
    {
      "name": "Pleven",
      "code": "15",
      "type": "district",
      "lat": 43.409022,
      "lng": 24.6180123,
      "population": null
    },
    {
      "name": "Plovdiv",
      "code": "16",
      "type": "district",
      "lat": 42.1354079,
      "lng": 24.7452904,
      "population": 329489
    },
    {
      "name": "Razgrad",
      "code": "17",
      "type": "district",
      "lat": 43.5271705,
      "lng": 26.5241228,
      "population": null
    },
    {
      "name": "Ruse",
      "code": "18",
      "type": "district",
      "lat": 43.8355964,
      "lng": 25.9656144,
      "population": null
    },
    {
      "name": "Shumen",
      "code": "27",
      "type": "district",
      "lat": 43.2712398,
      "lng": 26.9361286,
      "population": null
    },
    {
      "name": "Silistra",
      "code": "19",
      "type": "district",
      "lat": 44.1147101,
      "lng": 27.2671454,
      "population": null
    },
    {
      "name": "Sliven",
      "code": "20",
      "type": "district",
      "lat": 42.6816702,
      "lng": 26.3228569,
      "population": null
    },
    {
      "name": "Smolyan",
      "code": "21",
      "type": "district",
      "lat": 41.5774148,
      "lng": 24.7010871,
      "population": null
    },
    {
      "name": "Sofia",
      "code": "23",
      "type": "district",
      "lat": 42.64191,
      "lng": 23.9735632,
      "population": null
    },
    {
      "name": "Sofia City",
      "code": "22",
      "type": "district",
      "lat": 42.654318,
      "lng": 23.3331572,
      "population": null
    },
    {
      "name": "Stara Zagora",
      "code": "24",
      "type": "district",
      "lat": 42.4257709,
      "lng": 25.6344855,
      "population": null
    },
    {
      "name": "Targovishte",
      "code": "25",
      "type": "district",
      "lat": 43.2462349,
      "lng": 26.5691251,
      "population": null
    },
    {
      "name": "Varna",
      "code": "03",
      "type": "district",
      "lat": 43.2046477,
      "lng": 27.9105488,
      "population": null
    },
    {
      "name": "Veliko Tarnovo",
      "code": "04",
      "type": "district",
      "lat": 43.0820584,
      "lng": 25.6321312,
      "population": null
    },
    {
      "name": "Vidin",
      "code": "05",
      "type": "district",
      "lat": 43.9857242,
      "lng": 22.8772194,
      "population": null
    },
    {
      "name": "Vratsa",
      "code": "06",
      "type": "district",
      "lat": 43.2101806,
      "lng": 23.552921,
      "population": null
    },
    {
      "name": "Yambol",
      "code": "28",
      "type": "district",
      "lat": 42.4841494,
      "lng": 26.5035296,
      "population": 63656
    }
  ],
  "Burkina Faso": [
    {
      "name": "Balé",
      "code": "BAL",
      "type": "province",
      "lat": 11.658145,
      "lng": -3.0541022,
      "population": null
    },
    {
      "name": "Bam",
      "code": "BAM",
      "type": "province",
      "lat": 13.468115,
      "lng": -1.5986637,
      "population": null
    },
    {
      "name": "Banwa",
      "code": "BAN",
      "type": "province",
      "lat": 12.2265568,
      "lng": -4.1913344,
      "population": null
    },
    {
      "name": "Bazèga",
      "code": "BAZ",
      "type": "province",
      "lat": 11.8922276,
      "lng": -1.4593762,
      "population": null
    },
    {
      "name": "Boucle du Mouhoun",
      "code": "01",
      "type": "region",
      "lat": 12.4777805,
      "lng": -3.5879571,
      "population": null
    },
    {
      "name": "Bougouriba",
      "code": "BGR",
      "type": "province",
      "lat": 10.8820933,
      "lng": -3.4306631,
      "population": null
    },
    {
      "name": "Boulgou",
      "code": "BLG",
      "type": "province",
      "lat": 11.464625,
      "lng": -0.4089101,
      "population": null
    },
    {
      "name": "Boulkiemde",
      "code": "BLK",
      "type": "province",
      "lat": 12.293712,
      "lng": -2.1041312,
      "population": null
    },
    {
      "name": "Cascades",
      "code": "02",
      "type": "region",
      "lat": 10.3071812,
      "lng": -4.4351893,
      "population": null
    },
    {
      "name": "Centre",
      "code": "03",
      "type": "region",
      "lat": 12.36732,
      "lng": -1.5430869,
      "population": null
    },
    {
      "name": "Centre-Est",
      "code": "04",
      "type": "region",
      "lat": 11.734933,
      "lng": -0.2921056,
      "population": null
    },
    {
      "name": "Centre-Nord",
      "code": "05",
      "type": "region",
      "lat": 13.23871,
      "lng": -1.0349832,
      "population": null
    },
    {
      "name": "Centre-Ouest",
      "code": "06",
      "type": "region",
      "lat": 11.9067933,
      "lng": -2.3044801,
      "population": null
    },
    {
      "name": "Centre-Sud",
      "code": "07",
      "type": "region",
      "lat": 11.5833646,
      "lng": -1.0556301,
      "population": null
    },
    {
      "name": "Comoé",
      "code": "COM",
      "type": "province",
      "lat": 10.2419897,
      "lng": -4.4268875,
      "population": null
    },
    {
      "name": "Est",
      "code": "08",
      "type": "region",
      "lat": 12.2527495,
      "lng": 0.8736106,
      "population": null
    },
    {
      "name": "Ganzourgou",
      "code": "GAN",
      "type": "province",
      "lat": 12.2899154,
      "lng": -0.8083429,
      "population": null
    },
    {
      "name": "Gnagna",
      "code": "GNA",
      "type": "province",
      "lat": 12.9154574,
      "lng": -0.0659562,
      "population": null
    },
    {
      "name": "Gourma",
      "code": "GOU",
      "type": "province",
      "lat": 12.2278267,
      "lng": 0.5472078,
      "population": null
    },
    {
      "name": "Hauts-Bassins",
      "code": "09",
      "type": "region",
      "lat": 11.3890275,
      "lng": -4.041365,
      "population": null
    },
    {
      "name": "Houet",
      "code": "HOU",
      "type": "province",
      "lat": 11.3851056,
      "lng": -4.3273643,
      "population": null
    },
    {
      "name": "Ioba",
      "code": "IOB",
      "type": "province",
      "lat": 11.0343187,
      "lng": -2.9627761,
      "population": null
    },
    {
      "name": "Kadiogo",
      "code": "KAD",
      "type": "province",
      "lat": 12.36732,
      "lng": -1.5430869,
      "population": null
    },
    {
      "name": "Kénédougou",
      "code": "KEN",
      "type": "province",
      "lat": 11.403998,
      "lng": -4.9851028,
      "population": null
    },
    {
      "name": "Komondjari",
      "code": "KMD",
      "type": "province",
      "lat": 12.7269113,
      "lng": 0.7047083,
      "population": null
    },
    {
      "name": "Kompienga",
      "code": "KMP",
      "type": "province",
      "lat": 11.4487592,
      "lng": 0.9770378,
      "population": null
    },
    {
      "name": "Kossi",
      "code": "KOS",
      "type": "province",
      "lat": 12.9593346,
      "lng": -3.8436797,
      "population": null
    },
    {
      "name": "Koulpélogo",
      "code": "KOP",
      "type": "province",
      "lat": 11.4153137,
      "lng": 0.149899,
      "population": null
    },
    {
      "name": "Kouritenga",
      "code": "KOT",
      "type": "province",
      "lat": 12.185035,
      "lng": -0.244848,
      "population": null
    },
    {
      "name": "Kourwéogo",
      "code": "KOW",
      "type": "province",
      "lat": 12.6004222,
      "lng": -1.7598561,
      "population": null
    },
    {
      "name": "Léraba",
      "code": "LER",
      "type": "province",
      "lat": 10.6520035,
      "lng": -5.2116858,
      "population": null
    },
    {
      "name": "Loroum",
      "code": "LOR",
      "type": "province",
      "lat": 13.9463767,
      "lng": -2.10554,
      "population": null
    },
    {
      "name": "Mouhoun",
      "code": "MOU",
      "type": "province",
      "lat": 12.2367475,
      "lng": -3.3387562,
      "population": null
    },
    {
      "name": "Nahouri",
      "code": "NAO",
      "type": "province",
      "lat": 11.2545114,
      "lng": -1.2699821,
      "population": null
    },
    {
      "name": "Namentenga",
      "code": "NAM",
      "type": "province",
      "lat": 13.23672,
      "lng": -0.4819343,
      "population": null
    },
    {
      "name": "Nayala",
      "code": "NAY",
      "type": "province",
      "lat": 12.6601866,
      "lng": -2.9891153,
      "population": null
    },
    {
      "name": "Nord",
      "code": "10",
      "type": "region",
      "lat": 13.45911,
      "lng": -2.2496367,
      "population": null
    },
    {
      "name": "Noumbiel",
      "code": "NOU",
      "type": "province",
      "lat": 9.7967453,
      "lng": -2.9265543,
      "population": null
    },
    {
      "name": "Oubritenga",
      "code": "OUB",
      "type": "province",
      "lat": 12.59701,
      "lng": -1.252231,
      "population": null
    },
    {
      "name": "Oudalan",
      "code": "OUD",
      "type": "province",
      "lat": 14.6253063,
      "lng": -0.3333471,
      "population": null
    },
    {
      "name": "Passoré",
      "code": "PAS",
      "type": "province",
      "lat": 12.8777,
      "lng": -2.2944905,
      "population": null
    },
    {
      "name": "Plateau-Central",
      "code": "11",
      "type": "region",
      "lat": 12.40414,
      "lng": -0.886416,
      "population": null
    },
    {
      "name": "Poni",
      "code": "PON",
      "type": "province",
      "lat": 10.3085943,
      "lng": -3.3016811,
      "population": null
    },
    {
      "name": "Sahel",
      "code": "12",
      "type": "region",
      "lat": 14.0279165,
      "lng": -0.7717776,
      "population": null
    },
    {
      "name": "Sanguié",
      "code": "SNG",
      "type": "province",
      "lat": 12.2101561,
      "lng": -2.6421059,
      "population": null
    },
    {
      "name": "Sanmatenga",
      "code": "SMT",
      "type": "province",
      "lat": 13.2405448,
      "lng": -0.9747023,
      "population": null
    },
    {
      "name": "Séno",
      "code": "SEN",
      "type": "province",
      "lat": 13.99508,
      "lng": -0.0992076,
      "population": null
    },
    {
      "name": "Sissili",
      "code": "SIS",
      "type": "province",
      "lat": 11.4484064,
      "lng": -2.3912085,
      "population": null
    },
    {
      "name": "Soum",
      "code": "SOM",
      "type": "province",
      "lat": 14.2861443,
      "lng": -1.3452326,
      "population": null
    },
    {
      "name": "Sourou",
      "code": "SOR",
      "type": "province",
      "lat": 13.2311675,
      "lng": -2.962181,
      "population": null
    },
    {
      "name": "Sud-Ouest",
      "code": "13",
      "type": "region",
      "lat": 10.3869208,
      "lng": -3.2831886,
      "population": null
    },
    {
      "name": "Tapoa",
      "code": "TAP",
      "type": "province",
      "lat": 12.1450627,
      "lng": 1.7603025,
      "population": null
    },
    {
      "name": "Tuy",
      "code": "TUI",
      "type": "province",
      "lat": 11.4495604,
      "lng": -3.3787653,
      "population": null
    },
    {
      "name": "Yagha",
      "code": "YAG",
      "type": "province",
      "lat": 13.4269445,
      "lng": 0.6161497,
      "population": null
    },
    {
      "name": "Yatenga",
      "code": "YAT",
      "type": "province",
      "lat": 13.5942938,
      "lng": -2.5249513,
      "population": null
    },
    {
      "name": "Ziro",
      "code": "ZIR",
      "type": "province",
      "lat": 11.675305,
      "lng": -1.9146626,
      "population": 12806
    },
    {
      "name": "Zondoma",
      "code": "ZON",
      "type": "province",
      "lat": 13.1975396,
      "lng": -2.3085276,
      "population": null
    },
    {
      "name": "Zoundwéogo",
      "code": "ZOU",
      "type": "province",
      "lat": 11.5525895,
      "lng": -1.0308938,
      "population": null
    }
  ],
  "Burundi": [
    {
      "name": "Bubanza",
      "code": "BB",
      "type": "province",
      "lat": -3.1112787,
      "lng": 29.3828358,
      "population": 20031
    },
    {
      "name": "Bujumbura Mairie",
      "code": "BM",
      "type": "province",
      "lat": -3.3493959,
      "lng": 29.3631843,
      "population": 1225142
    },
    {
      "name": "Bujumbura Rural",
      "code": "BL",
      "type": "province",
      "lat": -3.4759817,
      "lng": 29.4535702,
      "population": 730000
    },
    {
      "name": "Bururi",
      "code": "BR",
      "type": "province",
      "lat": -3.8581592,
      "lng": 29.584379,
      "population": 20764
    },
    {
      "name": "Cankuzo",
      "code": "CA",
      "type": "province",
      "lat": -3.1450876,
      "lng": 30.58987,
      "population": 3624
    },
    {
      "name": "Cibitoke",
      "code": "CI",
      "type": "province",
      "lat": -2.8477341,
      "lng": 29.261662,
      "population": 23885
    },
    {
      "name": "Gitega",
      "code": "GI",
      "type": "province",
      "lat": -3.5382336,
      "lng": 29.910701,
      "population": null
    },
    {
      "name": "Karuzi",
      "code": "KR",
      "type": "province",
      "lat": -3.1255377,
      "lng": 30.0978347,
      "population": 10317
    },
    {
      "name": "Kayanza",
      "code": "KY",
      "type": "province",
      "lat": -3.0214816,
      "lng": 29.6458034,
      "population": 21767
    },
    {
      "name": "Kirundo",
      "code": "KI",
      "type": "province",
      "lat": -2.5853872,
      "lng": 30.0933449,
      "population": 10024
    },
    {
      "name": "Makamba",
      "code": "MA",
      "type": "province",
      "lat": -4.1978315,
      "lng": 29.8073996,
      "population": null
    },
    {
      "name": "Muramvya",
      "code": "MU",
      "type": "province",
      "lat": -3.2751181,
      "lng": 29.6307855,
      "population": 5458
    },
    {
      "name": "Muyinga",
      "code": "MY",
      "type": "province",
      "lat": -2.7335985,
      "lng": 30.3171441,
      "population": 100715
    },
    {
      "name": "Mwaro",
      "code": "MW",
      "type": "province",
      "lat": -3.4650043,
      "lng": 29.6708508,
      "population": 2403
    },
    {
      "name": "Ngozi",
      "code": "NG",
      "type": "province",
      "lat": -2.8776895,
      "lng": 29.8994986,
      "population": null
    },
    {
      "name": "Rumonge",
      "code": "RM",
      "type": "province",
      "lat": -3.9754049,
      "lng": 29.4388014,
      "population": 35931
    },
    {
      "name": "Rutana",
      "code": "RT",
      "type": "province",
      "lat": -3.8618714,
      "lng": 30.0676979,
      "population": 23654
    },
    {
      "name": "Ruyigi",
      "code": "RY",
      "type": "province",
      "lat": -3.4733471,
      "lng": 30.2501278,
      "population": 44220
    }
  ],
  "Cabo Verde": [
    {
      "name": "Barlavento Islands",
      "code": "B",
      "type": "geographical region",
      "lat": 17.0555285,
      "lng": -25.1723049,
      "population": null
    },
    {
      "name": "Boa Vista",
      "code": "BV",
      "type": "municipality",
      "lat": 16.099509,
      "lng": -22.8009411,
      "population": null
    },
    {
      "name": "Brava",
      "code": "BR",
      "type": "municipality",
      "lat": 14.8519426,
      "lng": -24.7086939,
      "population": null
    },
    {
      "name": "Maio",
      "code": "MA",
      "type": "municipality",
      "lat": 15.2272182,
      "lng": -23.1563014,
      "population": null
    },
    {
      "name": "Mosteiros",
      "code": "MO",
      "type": "municipality",
      "lat": 15.0347257,
      "lng": -24.3277421,
      "population": null
    },
    {
      "name": "Paul",
      "code": "PA",
      "type": "municipality",
      "lat": 17.1150295,
      "lng": -25.0201589,
      "population": null
    },
    {
      "name": "Porto Novo",
      "code": "PN",
      "type": "municipality",
      "lat": 17.0193423,
      "lng": -25.0641922,
      "population": null
    },
    {
      "name": "Praia",
      "code": "PR",
      "type": "municipality",
      "lat": 14.9481201,
      "lng": -23.5158945,
      "population": 159050
    },
    {
      "name": "Ribeira Brava",
      "code": "RB",
      "type": "municipality",
      "lat": 16.615728,
      "lng": -24.2982543,
      "population": null
    },
    {
      "name": "Ribeira Grande",
      "code": "RG",
      "type": "municipality",
      "lat": 17.1833547,
      "lng": -25.0643795,
      "population": null
    },
    {
      "name": "Ribeira Grande de Santiago",
      "code": "RS",
      "type": "municipality",
      "lat": 14.9830298,
      "lng": -23.6561725,
      "population": 8325
    },
    {
      "name": "Sal",
      "code": "SL",
      "type": "municipality",
      "lat": 16.7204556,
      "lng": -22.9386761,
      "population": null
    },
    {
      "name": "Santa Catarina",
      "code": "CA",
      "type": "municipality",
      "lat": 15.0890754,
      "lng": -23.7134304,
      "population": null
    },
    {
      "name": "Santa Catarina do Fogo",
      "code": "CF",
      "type": "municipality",
      "lat": 14.9022545,
      "lng": -24.3212579,
      "population": 5299
    },